"address","suburb","latitude","longitude","land_area","price"
"1 Acorn Place, South Lake","South Lake",-32.1159,115.84245,600,565000
"1 Addis Way, Wandi","Wandi",-32.19347028,115.85955349999999,351,365000
"1 Ainsley Court, Camillo","Camillo",-32.12057813,115.993579,719,287000
"1 Albert Street, Bellevue","Bellevue",-31.90054675,116.0380088,651,255000
"1 Aman Place, Lockridge","Lockridge",-31.885790000000004,115.94778000000001,466,325000
"1 Amethyst Crescent, Mount Richon","Mount Richon",-32.1538014,116.0236578,759,409000
"1 Ardara Lane, Hilbert","Hilbert",-32.17997786,115.9886473,386,400000
"1 Arnside Bend, Waikiki","Waikiki",-32.31766224,115.7619682,468,370000
"1 Arrochar Court, Hamersley","Hamersley",-31.84775987,115.82270049999998,875,565000
"1 Arundel Street, Bayswater","Bayswater",-31.91788,115.90705,552,685000
"1 Ashcott Gate, Butler","Butler",-31.65428,115.7022,398,367500
"1 Ashcroft Way, Balga","Balga",-31.84964681,115.84631399999999,243,300000
"1 Ashendon Boulevard, Hammond Park","Hammond Park",-32.15959,115.84948,704,535000
"1 Ashtree Boulevard, Wattle Grove","Wattle Grove",-32.00294817,115.9836459,614,540000
"1 August Court, Bull Creek","Bull Creek",-32.06458,115.86046,706,685000
"1 Avonlea Place, Bullsbrook","Bullsbrook",-31.66068818,116.0407159,663,350000
"1 Babbler Court, Maida Vale","Maida Vale",-31.95242,116.0207,568,570000
"1 Balga Place, Koongamia","Koongamia",-31.904090000000004,116.04213,751,318000
"1 Bamlett Street, Mount Nasura","Mount Nasura",-32.13247,116.0242,785,379000
"1 Banken Court, Forrestdale","Forrestdale",-32.14885,115.94308000000001,782,387500
"1 Barcroft Court, Atwell","Atwell",-32.137679999999996,115.86697,450,465000
"1 Bates Loop, Lockridge","Lockridge",-31.88355668,115.95423190000001,421,325000
"1 Batoni Way, Ashby","Ashby",-31.7328966,115.7996371,388,515000
"1 Bayley Street, Woodbridge","Woodbridge",-31.88948,115.99427,550,610000
"1 Beach Street, Bicton","Bicton",-32.02366,115.78188999999999,855,1950000
"1 Beacon Way, Singleton","Singleton",-32.434584,115.758448,600,420000
"1 Belfry Way, Wattle Grove","Wattle Grove",-32.00415385,115.9949594,459,492000
"1 Bell Court, Armadale","Armadale",-32.164115,116.00839270000002,711,201000
"1 Bellata Place, Kenwick","Kenwick",-32.03406,115.99136999999999,570,275000
"1 Bellier Place, Hamilton Hill","Hamilton Hill",-32.08948,115.78811,808,410000
"1 Belmont Close, Port Kennedy","Port Kennedy",-32.362590000000004,115.7517,550,315000
"1 Benowa Drive, Glen Forrest","Glen Forrest",-31.910390000000003,116.10841,2028,600000
"1 Bianco Place, Secret Harbour","Secret Harbour",-32.39686,115.75636999999999,672,400000
"1 Bignell Place, Herne Hill","Herne Hill",-31.82521,116.02121000000001,797,350000
"1 Bindoon Close, Gwelup","Gwelup",-31.869940000000003,115.79768,480,835000
"1 Binnia Mews, Harrisdale","Harrisdale",-32.11598945,115.91732730000001,469,482000
"1 Binns Court, North Fremantle","North Fremantle",-32.02689,115.75381999999999,354,1260000
"1 Bishops Close, Quinns Rocks","Quinns Rocks",-31.66895,115.70455,781,405000
"1 Bittern Close, Maida Vale","Maida Vale",-31.95549,116.01601000000001,620,465000
"1 Blato Place, Spearwood","Spearwood",-32.11658806,115.77908629999999,592,560000
"1 Bohemia Way, Parkwood","Parkwood",-32.0459,115.90518999999999,979,380000
"1 Boncath Road, Butler","Butler",-31.638689000000003,115.70020600000001,397,360000
"1 Bonita Way, Tapping","Tapping",-31.71607737,115.7997715,641,540000
"1 Boronia Court, Thornlie","Thornlie",-32.07705,115.94632,680,420000
"1 Borough Road, Baldivis","Baldivis",-32.36170962,115.81366909999998,495,330000
"1 Bourke Street, Kensington","Kensington",-31.987920000000003,115.88136999999999,774,705000
"1 Bowood Cove, Kiara","Kiara",-31.881240000000002,115.93878000000001,818,615000
"1 Bradbury Road, Hamilton Hill","Hamilton Hill",-32.07693,115.78611000000001,775,565000
"1 Bradford Street, Menora","Menora",-31.92056,115.86556999999999,917,850000
"1 Bradstocks Grove, Southern River","Southern River",-32.099348600000006,115.9525676,447,780000
"1 Bramley Way, Bibra Lake","Bibra Lake",-32.103790000000004,115.82631,358,520000
"1 Brassey Street, Swanbourne","Swanbourne",-31.97685,115.76985,619,1100000
"1 Brentwood Way, The Vines","The Vines",-31.75123,116.00693000000001,834,590000
"1 Brilliant Rise, Stratton","Stratton",-31.868290000000002,116.03838,561,312000
"1 Briston Place, North Beach","North Beach",-31.86096794,115.76636780000001,372,900000
"1 Bristow Street, Haynes","Haynes",-32.15937438,115.98808170000001,412,177000
"1 Brittain Avenue, Madeley","Madeley",-31.81185,115.8241,541,580000
"1 Brix Street, Wembley Downs","Wembley Downs",-31.91782603,115.7766387,544,1310000
"1 Brixton Road, Bentley","Bentley",-32.00510024,115.9157517,295,470000
"1 Bruning Road, Manning","Manning",-32.00891,115.87138,578,717000
"1 Bull Place, Queens Park","Queens Park",-32.00205721,115.94106200000002,380,387000
"1 Bynder Lane, Medina","Medina",-32.23409592,115.80588540000001,233,330000
"1 Cadiz Way, Bullsbrook","Bullsbrook",-31.65843642,116.04118020000001,350,380000
"1 Cam Court, Merriwa","Merriwa",-31.66719,115.71465,603,345000
"1 Camden Boulevard, Aubin Grove","Aubin Grove",-32.16854691,115.86785,619,528000
"1 Cameron Street, Karrinyup","Karrinyup",-31.87098262,115.77595890000002,802,1350000
"1 Camira Place, Gooseberry Hill","Gooseberry Hill",-31.951240000000002,116.05696,1940,735000
"1 Camrose Lane, Darch","Darch",-31.81372,115.85078,529,442500
"1 Canarias Way, Hillarys","Hillarys",-31.81745,115.74223,500,1015000
"1 Cannon Court, Alexander Heights","Alexander Heights",-31.83138,115.87381,771,530000
"1 Canny Road, St James","St James",-31.998829999999998,115.90543999999998,688,515000
"1 Carnegie Road, Bassendean","Bassendean",-31.907629999999997,115.9573,1012,1100000
"1 Carroll Street, Ardross","Ardross",-32.02499618,115.8306028,590,1265000
"1 Caterpillar Road, Success","Success",-32.15555254,115.84661709999999,446,472500
"1 Cessford Close, Leda","Leda",-32.26303,115.80407,642,380000
"1 Challenger Avenue, Manning","Manning",-32.01232,115.87353,449,590000
"1 Chamberlain Circle, Bateman","Bateman",-32.05318,115.85013000000001,727,835000
"1 Charleston Road, Eglinton","Eglinton",-31.59475775,115.66896909999998,432,495000
"1 Chauvel Court, Kiara","Kiara",-31.884959999999996,115.94411000000001,543,390000
"1 Chester Court, Orelia","Orelia",-32.23786,115.82736000000001,806,280000
"1 Chiddington Street, Beckenham","Beckenham",-32.02907099,115.96617409999999,953,355000
"1 Chipala Court, Edgewater","Edgewater",-31.77422523,115.79110659999999,697,465000
"1 Claret Ash Court, Helena Valley","Helena Valley",-31.91358,116.02843,1012,685000
"1 Clarke Street, East Cannington","East Cannington",-32.01255367,115.9493774,218,360000
"1 Clearwater Way, Singleton","Singleton",-32.43563932,115.75854679999999,550,320000
"1 Clifford Loop, Darch","Darch",-31.81702,115.84811,289,492000
"1 Cliverton Court, Marmion","Marmion",-31.845840000000003,115.75809,766,974000
"1 Clovertree Street, Maddington","Maddington",-32.0541,116.0043,1062,435000
"1 Cobea Court, Mount Claremont","Mount Claremont",-31.9669,115.78778,367,900000
"1 Cockman Road, Greenwood","Greenwood",-31.8335,115.81362,698,405000
"1 Cohen Place, Beechboro","Beechboro",-31.87535346,115.95369860000001,782,290000
"1 Collier Street, Wembley","Wembley",-31.929940000000002,115.81815,635,1160000
"1 Colmworth Way, Butler","Butler",-31.64758777,115.71031599999999,555,415000
"1 Colonial Mews, Edgewater","Edgewater",-31.766070000000003,115.77891000000001,758,525000
"1 Conical Way, Harrisdale","Harrisdale",-32.11590661,115.93006090000002,578,629000
"1 Convallis Vista, The Vines","The Vines",-31.76277307,116.0041591,510,600000
"1 Corbin Gate, Madeley","Madeley",-31.808107,115.82654,618,427000
"1 Coronado Ridge, Iluka","Iluka",-31.743409999999997,115.73398999999999,911,1015000
"1 Corvette Close, Waikiki","Waikiki",-32.32226,115.74799999999999,747,445000
"1 Craigie Place, Mundaring","Mundaring",-31.90413,116.16174,1869,610000
"1 Crest Grove, Ballajura","Ballajura",-31.83561,115.88917,803,465000
"1 Creswick Cross, Kiara","Kiara",-31.88155,115.93723,545,454000
"1 Criollo Place, Stratton","Stratton",-31.866618199999998,116.0474837,514,380000
"1 Crivelli Parkway, Ashby","Ashby",-31.73266376,115.80054390000001,401,382000
"1 Crowley Vista, Salter Point","Salter Point",-32.018879999999996,115.86017,527,1150000
"1 Curruthers Road, Mount Pleasant","Mount Pleasant",-32.035946,115.853523,1100,2200000
"1 Cypress Mews, Warnbro","Warnbro",-32.3275827,115.7565963,580,375000
"1 Dagostino Road, Byford","Byford",-32.22239608,115.99214009999999,694,495000
"1 Dalkey Way, Darch","Darch",-31.81004895,115.84418000000001,327,445000
"1 Danzil Street, Willagee","Willagee",-32.05243282,115.79768030000001,450,515000
"1 Datchet Turn, Bertram","Bertram",-32.23789039,115.8423672,271,270000
"1 David Street, Mullaloo","Mullaloo",-31.7818,115.73812,810,780000
"1 Davis Court, Woodlands","Woodlands",-31.90617,115.79711,701,1280000
"1 Daybreak Loop, Wellard","Wellard",-32.26332378,115.8554732,465,410000
"1 Dean Place, Lockridge","Lockridge",-31.87775,115.94532,666,425000
"1 Dean Road, Bateman","Bateman",-32.0464,115.84477,807,599900
"1 Delphi Court, Rossmoyne","Rossmoyne",-32.03477,115.87024,1133,1330000
"1 Denton Street, Wembley","Wembley",-31.94173236,115.8166999,328,732000
"1 Deverell Way, Bentley","Bentley",-32.01167461,115.90767279999999,327,465000
"1 Dilkera Place, Quinns Rocks","Quinns Rocks",-31.666090000000004,115.70398,646,380000
"1 Discovery Circuit, Iluka","Iluka",-31.741509999999998,115.72522,770,1300000
"1 Disney Street, Brentwood","Brentwood",-32.0424445,115.84558030000001,434,710250
"1 Dolomite Road, Carine","Carine",-31.85258,115.77078999999999,755,835000
"1 Dolphin Way, Beldon","Beldon",-31.77175,115.7563,683,400000
"1 Doradeen Close, Hillman","Hillman",-32.286429999999996,115.76432,761,275000
"1 Doram Court, Swan View","Swan View",-31.87503,116.04677,686,335000
"1 Driftwood Way, Bennett Springs","Bennett Springs",-31.85716057,115.94865190000002,582,400000
"1 Driver Road, Darch","Darch",-31.81305,115.84891999999999,653,532000
"1 Durant Way, Brentwood","Brentwood",-32.04516488,115.85143159999998,419,820000
"1 Dutton Way, Singleton","Singleton",-32.45159,115.75533,913,385000
"1 Duxford Street, Butler","Butler",-31.649409999999996,115.69968,673,427000
"1 East Street, Mount Hawthorn","Mount Hawthorn",-31.924770000000002,115.83006,376,660000
"1 Eastfield Court, Ferndale","Ferndale",-32.03099,115.9353606,955,250000
"1 Easton Court, Boya","Boya",-31.91901559,116.0521097,1010,508000
"1 Edelweiss Way, Beckenham","Beckenham",-32.02013901,115.9617687,538,415000
"1 Edgecombe Pass, Aveley","Aveley",-31.79128655,115.9853567,741,550000
"1 El Porto Way, Iluka","Iluka",-31.73064,115.7305,623,935000
"1 Elfin Grove, Warnbro","Warnbro",-32.33945,115.76286999999999,759,380000
"1 Elvire Street, Midland","Midland",-31.88588,116.00078,927,349000
"1 Empress Crescent, Atwell","Atwell",-32.12896,115.8641,701,470000
"1 Epping Court, High Wycombe","High Wycombe",-31.933213000000002,116.010305,500,475000
"1 Estevan Way, Ferndale","Ferndale",-32.03262,115.92793999999999,700,490000
"1 Ethel Street, Guildford","Guildford",-31.90087308,115.9671624,380,715000
"1 Etna Place, Rossmoyne","Rossmoyne",-32.03299881,115.87103789999999,520,1100000
"1 Eudora Way, North Coogee","North Coogee",-32.10580379,115.76637690000001,495,1130000
"1 Fairetha Court, Ascot","Ascot",-31.927229999999998,115.94662,528,720000
"1 Fairhaven Terrace, Hillarys","Hillarys",-31.802628499999997,115.7335301,451,1075000
"1 Fallow Crescent, Spearwood","Spearwood",-32.11469111,115.77772079999998,427,475000
"1 Fantail Drive, Bibra Lake","Bibra Lake",-32.104440000000004,115.82799999999999,735,545000
"1 Farrington Street, Warnbro","Warnbro",-32.33509,115.75023999999999,872,317500
"1 Federal Street, Osborne Park","Osborne Park",-31.89819732,115.82597759999999,337,465000
"1 Felpham Court, Success","Success",-32.13581424,115.8464459,502,449000
"1 First Avenue, Woodbridge","Woodbridge",-31.89071,115.99245,607,525000
"1 Fischer Road, Darlington","Darlington",-31.90745,116.08066000000001,2152,900000
"1 Flemington Way, Redcliffe","Redcliffe",-31.94468218,115.94622509999999,428,375000
"1 Flint Close, Pearsall","Pearsall",-31.7776903,115.81566200000002,641,522000
"1 Florey Place, Huntingdale","Huntingdale",-32.0806105,115.972457,700,464000
"1 Forrest Court, Kiara","Kiara",-31.886190000000003,115.93636000000001,720,490000
"1 Fort Street, Morley","Morley",-31.907429999999998,115.89934,605,560000
"1 Fortuna View, Iluka","Iluka",-31.73934726,115.72458619999999,696,1160000
"1 Fortune Street, Balcatta","Balcatta",-31.88513,115.82445,322,460000
"1 Fourth Avenue, Rossmoyne","Rossmoyne",-32.0356484,115.8700915,1029,872000
"1 Fran Court, Merriwa","Merriwa",-31.67332,115.71274,653,335000
"1 Freedman Road, Menora","Menora",-31.917494899999998,115.8627879,792,925000
"1 Gaffin Way, Kwinana Town Centre","Kwinana Town Centre",-32.24220021,115.8152219,203,330000
"1 Gali Lane, City Beach","City Beach",-31.92904792,115.77002399999999,440,1930000
"1 Galilee Way, Baldivis","Baldivis",-32.34096334,115.8181808,749,547000
"1 Gamay Court, The Vines","The Vines",-31.75328,116.00533999999999,734,533000
"1 Gannett Street, Bateman","Bateman",-32.04687661,115.8473517,807,460000
"1 Genesta Place, Two Rocks","Two Rocks",-31.49278,115.58896000000001,819,405000
"1 Georges Close, Kallaroo","Kallaroo",-31.793909999999997,115.74608,773,1075000
"1 Gerygone Pass, Tapping","Tapping",-31.72047938,115.7877351,420,465000
"1 Ghost Gum Boulevard, Banksia Grove","Banksia Grove",-31.69797849,115.8022078,373,335000
"1 Gianatti Ramble, East Cannington","East Cannington",-32.0131973,115.9599173,462,745000
"1 Gidgee Cove, Kenwick","Kenwick",-32.03440647,115.9855347,416,385000
"1 Gilchrist Avenue, Bibra Lake","Bibra Lake",-32.08615,115.84273,700,480000
"1 Gillespie Court, Lockridge","Lockridge",-31.886840000000003,115.94766000000001,351,330000
"1 Gillon Road, Noranda","Noranda",-31.87758,115.90971,752,520000
"1 Giudice Way, Yangebup","Yangebup",-32.12598858,115.80846809999998,641,885000
"1 Glasson Way, Darch","Darch",-31.80600361,115.8399203,596,610000
"1 Glebe Close, Mindarie","Mindarie",-31.68433,115.71265,726,830000
"1 Gloucester Road, Kalamunda","Kalamunda",-31.9862,116.06308999999999,997,485000
"1 Gold Lane, Iluka","Iluka",-31.73051,115.73091000000001,638,769000
"1 Gordon Place, Huntingdale","Huntingdale",-32.076494,115.9698639,675,410000
"1 Gorman Place, Calista","Calista",-32.247079,115.805396,559,475000
"1 Graduate Place, Marangaroo","Marangaroo",-31.82507,115.84666999999999,613,385000
"1 Grahame Street, Mount Helena","Mount Helena",-31.868440000000003,116.21401999999999,1635,385000
"1 Grant Street, Duncraig","Duncraig",-31.82993213,115.7682169,576,730000
"1 Gray Road, Haynes","Haynes",-32.14771648,115.9833416,2000,720000
"1 Green Street, Kewdale","Kewdale",-31.98095493,115.9380797,688,505000
"1 Greygum Rise, Kenwick","Kenwick",-32.03717,115.98572,515,362500
"1 Grid Court, Beldon","Beldon",-31.7725,115.76201999999999,685,487000
"1 Grimsay Road, Ardross","Ardross",-32.02469,115.83702,380,600000
"1 Grove End Ridge, Mount Claremont","Mount Claremont",-31.96425,115.78209,1055,1675000
"1 Grove Street, Shoalwater","Shoalwater",-32.29130126,115.7122419,825,315000
"1 Hadlow Court, Leeming","Leeming",-32.07296442,115.86550179999999,803,428000
"1 Halleendale Road, Walliston","Walliston",-32.00122,116.06845,1386,620000
"1 Hamlyn Glen, Kiara","Kiara",-31.88204218,115.93419109999998,975,405000
"1 Hanrahan Loop, Kardinya","Kardinya",-32.06888,115.80488000000001,701,643000
"1 Hansen Vista, Landsdale","Landsdale",-31.812279999999998,115.86481,556,538000
"1 Hardey Road, Serpentine","Serpentine",-32.368759999999995,115.97618,2000,375000
"1 Harrier Way, Beldon","Beldon",-31.77517826,115.774014,461,395000
"1 Hartle Lane, Brookdale","Brookdale",-32.17006445,116.0063044,471,311850
"1 Hartley Street, Coolbellup","Coolbellup",-32.07800737,115.79473370000001,613,499000
"1 Hartwell Parade, Jandakot","Jandakot",-32.10808521,115.8555693,815,620000
"1 Harwood Street, Hilton","Hilton",-32.06521332,115.78437120000001,537,560003
"1 Hazlett Close, South Lake","South Lake",-32.10647,115.83728,703,481000
"1 Hennessy Drive, Ashby","Ashby",-31.73327888,115.797917,570,430000
"1 Henrietta Court, Coogee","Coogee",-32.12453,115.77293,691,727000
"1 Henty Court, Mirrabooka","Mirrabooka",-31.85539218,115.86104250000001,723,450000
"1 Heslop Road, Lesmurdie","Lesmurdie",-31.99545,116.05911,1000,705000
"1 Hewlett Turn, Tapping","Tapping",-31.71751458,115.79864540000001,594,470000
"1 Hilliger Turn, Jane Brook","Jane Brook",-31.85965981,116.056712,430,515000
"1 Hilltop Close, Mahogany Creek","Mahogany Creek",-31.90108,116.14282,1799,272500
"1 Hilltop Place, Edgewater","Edgewater",-31.76698,115.78496000000001,736,492500
"1 Hitek Court, Merriwa","Merriwa",-31.67284,115.71496,599,280000
"1 Holmesdale Road, Woodbridge","Woodbridge",-31.89292,115.99591000000001,510,575000
"1 Holywell Street, Middle Swan","Middle Swan",-31.87473097,116.01250879999999,500,495000
"1 Honister Close, Balga","Balga",-31.853413800000002,115.8397022,714,290000
"1 Hood Street, Forrestfield","Forrestfield",-31.99944892,116.01214499999999,700,365000
"1 Hulbert Street, South Fremantle","South Fremantle",-32.07436,115.75525,455,1200000
"1 Huntington Road, Coogee","Coogee",-32.11466,115.76908999999999,706,910000
"1 Hydra Close, Rockingham","Rockingham",-32.29327,115.73428,725,340000
"1 Hynes Road, Dalkeith","Dalkeith",-31.9961478,115.78968470000001,1072,1800000
"1 INGODA LINK, Baldivis","Baldivis",-32.34367531,115.81473899999999,719,650000
"1 Ingot Lane, Harrisdale","Harrisdale",-32.11452587,115.9296236,446,492000
"1 Iona Place, Cannington","Cannington",-32.01165,115.93722,527,543800
"1 Irma Way, Butler","Butler",-31.64276,115.70605,568,360000
"1 Ironcap Grove, Wandi","Wandi",-32.20048161,115.8608325,439,305000
"1 Ivythorne Grove, Kiara","Kiara",-31.88213,115.93383999999999,534,210000
"1 Jacolite Street, Darch","Darch",-31.81164307,115.8494115,597,530000
"1 Jade Grove, Edgewater","Edgewater",-31.768179999999997,115.78316000000001,723,480000
"1 Jaffa Close, Seville Grove","Seville Grove",-32.145346,115.9854452,647,375000
"1 Jamaican Road, Safety Bay","Safety Bay",-32.307190000000006,115.74436999999999,688,372500
"1 Jameson Street, Mosman Park","Mosman Park",-32.01677624,115.76669440000002,1140,980000
"1 Jarrah Lane, Mount Claremont","Mount Claremont",-31.968529999999998,115.79211000000001,309,1210000
"1 Jaywick Close, Safety Bay","Safety Bay",-32.30164,115.72676000000001,565,435000
"1 Jecks Street, Maida Vale","Maida Vale",-31.95706,116.01908999999999,561,508000
"1 Jeffrey Loop, Brookdale","Brookdale",-32.16939481,116.0083618,330,315000
"1 Jib Court, Ocean Reef","Ocean Reef",-31.76898,115.7423,848,740000
"1 Johnson Avenue, Guildford","Guildford",-31.90124079,115.9694943,357,561000
"1 Jolimont Terrace, Jolimont","Jolimont",-31.94424,115.81145,466,1100000
"1 Jura Court, Duncraig","Duncraig",-31.83222514,115.7803186,739,575000
"1 Jurien Close, Warnbro","Warnbro",-32.334790000000005,115.76476000000001,714,301000
"1 Kadi Court, Marangaroo","Marangaroo",-31.834529999999997,115.84548999999998,486,380000
"1 Kalara Road, Koongamia","Koongamia",-31.9068,116.03943000000001,692,350000
"1 Kalara Way, Koongamia","Koongamia",-31.906209999999998,116.03842,729,172000
"1 Kalbarri Pass, Jane Brook","Jane Brook",-31.86176396,116.0570848,641,725000
"1 Kangaroo Entrance, Stratton","Stratton",-31.86161,116.03936000000002,539,255000
"1 Kartner Road, Tapping","Tapping",-31.725920000000002,115.79928000000001,652,500000
"1 Kensington Street, Bellevue","Bellevue",-31.89893997,116.0338253,837,520000
"1 Kent Street, Viveash","Viveash",-31.877240000000004,116.00034,850,300000
"1 Kevin Street, Stoneville","Stoneville",-31.8751,116.18083999999999,2024,533000
"1 Kilmurray Elbow, Huntingdale","Huntingdale",-32.08833,115.95745,600,415000
"1 Kinkuna Way, City Beach","City Beach",-31.91382,115.76336,778,1645000
"1 Kirkcolm Way, Warwick","Warwick",-31.84202,115.79866000000001,702,655000
"1 Kirke Cove, Merriwa","Merriwa",-31.663017,115.70758700000002,462,307000
"1 Kirkstall Way, Sawyers Valley","Sawyers Valley",-31.90062,116.19866,1833,405000
"1 Knaphill Heights, Mirrabooka","Mirrabooka",-31.85597209,115.87206440000001,626,458000
"1 Kookaburra Terrace, Ballajura","Ballajura",-31.83531353,115.8907374,704,335000
"1 Kutcharo Crescent, Joondalup","Joondalup",-31.72359,115.75795,729,451000
"1 Kyby Place, Carramar","Carramar",-31.70664144,115.7936456,611,719000
"1 Kyle Place, Swan View","Swan View",-31.89313,116.06577,2002,726000
"1 Lambeth Mews, Mount Claremont","Mount Claremont",-31.96237,115.77813,1047,2150000
"1 Lanark Street, Menora","Menora",-31.91975,115.85611999999999,660,875000
"1 Langham Street, Nedlands","Nedlands",-31.9730632,115.80670659999998,540,1200000
"1 Lark Mews, Ballajura","Ballajura",-31.83355,115.88701999999999,812,550000
"1 Lauder Place, Kinross","Kinross",-31.71787,115.7355,628,525000
"1 Laughton Way, Leeming","Leeming",-32.06656535,115.86796899999999,329,577000
"1 Lee Street, Forrestfield","Forrestfield",-31.995754499999997,116.0121594,363,305000
"1 Lena Street, Beckenham","Beckenham",-32.01824223,115.95492879999999,771,385000
"1 Lennoxtown Road, Duncraig","Duncraig",-31.832359999999998,115.78233,701,650000
"1 Letchworth Centre Avenue, Salter Point","Salter Point",-32.02242817,115.8685716,1012,1000000
"1 Librizzi Parade, Sinagra","Sinagra",-31.73905101,115.8032831,654,530000
"1 Lilypond Court, Ascot","Ascot",-31.926440000000003,115.94743000000001,279,555000
"1 Linnett Brace, Darch","Darch",-31.816359999999996,115.83881000000001,545,550000
"1 Lintonmarc Drive, Redcliffe","Redcliffe",-31.944309999999998,115.94518000000001,496,555000
"1 Litchfield Crescent, Carramar","Carramar",-31.71023649,115.79654579999999,677,565000
"1 Little Lefroy Lane, South Fremantle","South Fremantle",-32.0676128,115.7545084,270,950000
"1 Love Street, Myaree","Myaree",-32.04018283,115.8122838,422,625000
"1 Luhrs Court, Mundaring","Mundaring",-31.892390000000002,116.17272,2000,675000
"1 Luke Place, Ascot","Ascot",-31.92521012,115.9497051,462,580000
"1 Lundy Cove, Kiara","Kiara",-31.879559999999998,115.93453999999998,455,365000
"1 Macdonald Road, Applecross","Applecross",-32.01132011,115.83437079999999,401,990000
"1 Mackie Place, Midvale","Midvale",-31.89125,116.01903,404,375000
"1 Maidos Street, Ashfield","Ashfield",-31.91705,115.93365,450,358000
"1 MAJORELLE WAY, Eglinton","Eglinton",-31.5962686,115.6726446,510,279500
"1 Mal Bay Court, Mindarie","Mindarie",-31.69765942,115.7136665,712,660000
"1 Maley Court, Ashfield","Ashfield",-31.91783,115.93908,600,435000
"1 Malibu Entrance, Iluka","Iluka",-31.73776993,115.7251695,639,1500000
"1 Malone Mews, Clarkson","Clarkson",-31.67738,115.7139,758,299000
"1 Manhattan Concourse, Hilbert","Hilbert",-32.18057352,115.96751599999999,302,445000
"1 Mannaw Place, Hillman","Hillman",-32.2868,115.76235,709,315000
"1 Mannix Pass, Queens Park","Queens Park",-32.0070209,115.94827099999999,441,500000
"1 Marconi Street, Morley","Morley",-31.888625,115.92600259999999,801,650000
"1 Margaret Road, Secret Harbour","Secret Harbour",-32.4137457,115.74990859999998,605,700000
"1 Marich Cove, Atwell","Atwell",-32.13147,115.86607,652,442000
"1 Maritana Road, Kallaroo","Kallaroo",-31.79102,115.74803999999999,407,470000
"1 Marker Road, Ocean Reef","Ocean Reef",-31.76473,115.74293999999999,860,940250
"1 Markham Place, Bentley","Bentley",-32.00646397,115.92172649999999,504,375000
"1 Maroma Loop, Burns Beach","Burns Beach",-31.7222495,115.7296768,501,672500
"1 Martin Avenue, Rivervale","Rivervale",-31.95561853,115.916921,363,400000
"1 Mayhill Place, Craigie","Craigie",-31.791079999999997,115.76201,684,445000
"1 McBain Court, Langford","Langford",-32.040820000000004,115.95063999999999,703,468000
"1 Mcdermott Road, Kwinana Town Centre","Kwinana Town Centre",-32.24286002,115.8161455,206,145700
"1 McKenna Glen, Mount Claremont","Mount Claremont",-31.967340000000004,115.78543,476,1050000
"1 McKenzie Corner, Bertram","Bertram",-32.254559,115.84725,646,470000
"1 Meadow Place, Hocking","Hocking",-31.76526876,115.8128791,680,360000
"1 Meares Avenue, Parmelia","Parmelia",-32.240190000000005,115.81652,711,220000
"1 Mears Way, Hilbert","Hilbert",-32.16528477,115.99252800000001,332,276000
"1 Melissa Street, Duncraig","Duncraig",-31.817840000000004,115.7646,716,950000
"1 Melita Drive, Helena Valley","Helena Valley",-31.91391044,116.02574070000001,276,464000
"1 Melrose Crescent, Menora","Menora",-31.92307875,115.86028219999999,1317,1365000
"1 Mercer Place, Thornlie","Thornlie",-32.06477,115.95752,675,300000
"1 Merlot Court, The Vines","The Vines",-31.750040000000002,116.00258000000001,706,455000
"1 Milina Street, Hillman","Hillman",-32.28523,115.75853000000001,780,278000
"1 Mingara Avenue, Harrisdale","Harrisdale",-32.11547772,115.9347183,753,1200000
"1 Mission Place, Cooloongup","Cooloongup",-32.288509999999995,115.76899999999999,802,430000
"1 Moira Mews, Stratton","Stratton",-31.862790000000004,116.04176000000001,568,365000
"1 Monarch Way, Wattle Grove","Wattle Grove",-32.00507281,115.9905399,454,486000
"1 Montana Crescent, Dayton","Dayton",-31.85779855,115.9686595,254,430000
"1 Montrose Way, Nollamara","Nollamara",-31.87969259,115.83718909999999,893,300000
"1 Moody Glen, Palmyra","Palmyra",-32.04923,115.78686,534,740000
"1 Moseley Drive, The Vines","The Vines",-31.76139342,115.99199909999999,1638,859000
"1 Mosman Loop, Success","Success",-32.15405,115.84445,545,540000
"1 Mottee Road, Bateman","Bateman",-32.056020000000004,115.84681,757,778000
"1 Mudalla Way, Koongamia","Koongamia",-31.90607,116.04231000000001,675,385000
"1 Mulberry Lane, Mirrabooka","Mirrabooka",-31.85864883,115.86713470000001,728,410000
"1 Mulgrave Loop, Mindarie","Mindarie",-31.67824124,115.70889170000001,711,610000
"1 Myhill Mews, Leda","Leda",-32.26273,115.80221,568,215000
"1 Namoi Street, Hammond Park","Hammond Park",-32.16283412,115.84548170000001,642,595000
"1 Nardie Place, Hillman","Hillman",-32.28552,115.76148,682,320000
"1 Narla Place, Koongamia","Koongamia",-31.90288,116.03947,751,262000
"1 New Ross Lane, Waterford","Waterford",-32.01535,115.89053999999999,606,1050000
"1 Newman Place, Kenwick","Kenwick",-32.03205495,115.98390549999999,670,370000
"1 Newmarket Retreat, Currambine","Currambine",-31.74052,115.75348999999999,734,540000
"1 newquay Street, Harrisdale","Harrisdale",-32.11730851,115.92979199999999,451,462500
"1 Niagara Cove, Bentley","Bentley",-32.00766186,115.9140864,439,438000
"1 Nicholas Crescent, Hilton","Hilton",-32.07035301,115.7819202,900,467500
"1 Nobilis Street, Beeliar","Beeliar",-32.13312954,115.8088136,477,500000
"1 Norfolk Rise, Mount Claremont","Mount Claremont",-31.9633,115.78282,969,1900000
"1 Northerly Avenue, Ascot","Ascot",-31.93709715,115.9185057,304,854000
"1 Nyjong Street, Kenwick","Kenwick",-32.04740777,115.9738778,431,350000
"1 Oakwood Court, Beechboro","Beechboro",-31.867829999999998,115.92081999999999,594,475000
"1 Oban Court, Duncraig","Duncraig",-31.834329999999998,115.77878999999999,703,1115000
"1 Odell Court, Carine","Carine",-31.847609999999996,115.78237,712,800000
"1 Odell Street, Secret Harbour","Secret Harbour",-32.416,115.76813100000001,572,385000
"1 Offord Street, Armadale","Armadale",-32.15956,116.0022,694,176500
"1 Ollis Street, Safety Bay","Safety Bay",-32.30174,115.71788000000001,931,360000
"1 O'Mara Boulevard, Iluka","Iluka",-31.73456015,115.73171119999999,355,625000
"1 Orange Valley Road, Kalamunda","Kalamunda",-31.979029999999998,116.05678999999999,1070,582500
"1 Otway Street, Swanbourne","Swanbourne",-31.98102,115.76982,405,2302500
"1 Palos Court, Sorrento","Sorrento",-31.824209999999997,115.75973,607,680000
"1 Parish Lane, Churchlands","Churchlands",-31.916179999999997,115.79672,550,1400000
"1 Park Lane, Kardinya","Kardinya",-32.0659,115.82623000000001,549,610000
"1 Parkwood Avenue, Woodvale","Woodvale",-31.77945863,115.78634869999999,409,554500
"1 Peaceful Close, Marangaroo","Marangaroo",-31.82195,115.84348999999999,689,420000
"1 Pearson Crescent, Bull Creek","Bull Creek",-32.06045,115.86766000000001,691,950000
"1 Pedalstone Drive, Southern River","Southern River",-32.10177,115.94081000000001,769,705000
"1 Peet Crescent, Trigg","Trigg",-31.88597462,115.76088590000002,527,780000
"1 Pelion Court, Middle Swan","Middle Swan",-31.87366996,116.0147774,484,505000
"1 Penn Lane, Hammond Park","Hammond Park",-32.15997,115.8498,604,515000
"1 Penson Street, Singleton","Singleton",-32.45555,115.75736,783,345000
"1 Pera Mews, Beldon","Beldon",-31.780459999999998,115.75923,718,460000
"1 Peter Way, Rossmoyne","Rossmoyne",-32.04305,115.86412,950,1778000
"1 Piermont Avenue, Burns Beach","Burns Beach",-31.72401491,115.73037250000002,550,900000
"1 Pixie Place, Two Rocks","Two Rocks",-31.504585,115.60238700000001,536,395000
"1 Plover Way, Stirling","Stirling",-31.875609999999998,115.80505,641,625000
"1 Poinsettia Grove, South Lake","South Lake",-32.09855,115.84578,700,499000
"1 Point Link, Alkimos","Alkimos",-31.60087269,115.6807476,631,595000
"1 Polglase Fairway, Clarkson","Clarkson",-31.68787,115.72299,662,379000
"1 Portland Way, Ridgewood","Ridgewood",-31.657677000000003,115.72488899999999,653,520000
"1 Portsea Gardens, Jandakot","Jandakot",-32.100770000000004,115.85451,593,912000
"1 Presto Close, Quinns Rocks","Quinns Rocks",-31.66272,115.69708999999999,607,475000
"1 Printer Street, Dianella","Dianella",-31.893720000000002,115.87926999999999,684,560000
"1 Pursuit Close, Middle Swan","Middle Swan",-31.871059999999996,116.02654,615,407000
"1 Purvis Street, Hamilton Hill","Hamilton Hill",-32.08354,115.79319,839,470000
"1 Quail Place, Langford","Langford",-32.03925,115.94447,800,440000
"1 Quenda Close, Beeliar","Beeliar",-32.128009999999996,115.81709,545,520000
"1 Ragtime Court, Ascot","Ascot",-31.92747,115.94653999999998,250,440000
"1 Ramose Close, Heathridge","Heathridge",-31.762929999999997,115.76445,712,415000
"1 Reflection Mews, Safety Bay","Safety Bay",-32.30085198,115.71974750000001,741,419000
"1 Regatta Way, Alkimos","Alkimos",-31.60184192,115.67637859999998,370,307000
"1 Regent Court, Cockburn Central","Cockburn Central",-32.12682,115.845827,476,515000
"1 Reginald Street, Queens Park","Queens Park",-32.00268524,115.9546466,634,670000
"1 Reilly Street, Singleton","Singleton",-32.44782,115.75332,964,330000
"1 Reinagle Street, Ashby","Ashby",-31.72839,115.79846,606,539000
"1 Repens Way, Banksia Grove","Banksia Grove",-31.70068425,115.8044033,549,370000
"1 Reserve Street, Bicton","Bicton",-32.023018,115.785058,565,1820000
"1 Retchford Way, Queens Park","Queens Park",-32.00498497,115.9521355,463,560000
"1 Reuben Street, Beaconsfield","Beaconsfield",-32.06387863,115.7576047,256,590000
"1 Riber Court, Carine","Carine",-31.85137028,115.7924463,741,925000
"1 Richards Crescent, Craigie","Craigie",-31.7799,115.77321,741,440000
"1 Rigoll Court, Mundijong","Mundijong",-32.28693,115.98653999999999,873,400000
"1 Ringarooma Way, Willetton","Willetton",-32.05836,115.89553000000001,764,670000
"1 Ringmer Way, Westminster","Westminster",-31.87030004,115.84140490000001,773,380000
"1 River Bed Pass, Wilson","Wilson",-32.027229999999996,115.90928999999998,722,765000
"1 Riverdale Road, Helena Valley","Helena Valley",-31.916209000000002,116.029513,626,415000
"1 Robert Street, Dalkeith","Dalkeith",-31.992759999999997,115.79193000000001,809,1700000
"1 Robyn Street, Morley","Morley",-31.88360862,115.88822520000001,742,520000
"1 Romani Court, Lockridge","Lockridge",-31.885,115.9474,418,400000
"1 Rosalind Court, Rossmoyne","Rossmoyne",-32.04082519,115.87013200000001,877,1110000
"1 Rose Bay Court, Kallaroo","Kallaroo",-31.787290000000002,115.7368,868,1150000
"1 ROSTRATUS Link, Dayton","Dayton",-31.86142468,115.97266780000001,395,480000
"1 Rothsay Crescent, Menora","Menora",-31.918397600000002,115.86299709999999,745,915000
"1 Rowe Place, Noranda","Noranda",-31.87743947,115.88029420000001,801,620000
"1 Royal Melbourne Avenue, Connolly","Connolly",-31.75275,115.75204,774,705000
"1 Royce Grove, Booragoon","Booragoon",-32.04205,115.82813999999999,786,932000
"1 Ruby Avenue, Langford","Langford",-32.03383,115.94082,749,482000
"1 Ruby Court, Mount Richon","Mount Richon",-32.159955,116.02380330000001,1606,589000
"1 Rudge Place, Lockridge","Lockridge",-31.88383025,115.9552588,475,320000
"1 Salisbury Road, Beechboro","Beechboro",-31.87159,115.9329,539,350000
"1 Salmond Way, Bull Creek","Bull Creek",-32.0499631,115.86198219999999,775,802000
"1 Salvin Road, Gwelup","Gwelup",-31.87505528,115.7967669,302,820000
"1 Samos Place, Mindarie","Mindarie",-31.69037,115.7087,729,790000
"1 Sandalford Drive, Beldon","Beldon",-31.77478,115.77203,690,504000
"1 Sandringham Street, Trigg","Trigg",-31.88519996,115.7610159,817,1051000
"1 Scarcliffe Way, Carine","Carine",-31.852970000000003,115.76803000000001,980,1125000
"1 Scott Street, Kewdale","Kewdale",-31.97556419,115.9386716,331,472000
"1 Seaflight Court, Heathridge","Heathridge",-31.756190000000004,115.76207,904,560000
"1 Searle Road, Ardross","Ardross",-32.03168,115.8318,527,1390000
"1 Sedge Link, Atwell","Atwell",-32.1485618,115.8709936,558,520000
"1 Sellenger Avenue, Samson","Samson",-32.06761721,115.80088329999998,710,462000
"1 Seton Lane, Kinross","Kinross",-31.71612,115.72981000000001,725,550000
"1 Shackleton Street, Bassendean","Bassendean",-31.909609999999997,115.94662,535,600000
"1 Sheppard Way, Marmion","Marmion",-31.84399,115.75398999999999,708,1480000
"1 Shiralee Bend, Carramar","Carramar",-31.71055,115.79688,631,650000
"1 Shoal Court, Coogee","Coogee",-32.12684,115.77035,885,710000
"1 Short Street, North Beach","North Beach",-31.862379999999998,115.75471,552,912000
"1 Silky Lane, Wandi","Wandi",-32.19984019,115.8607572,437,303000
"1 Simon Place, City Beach","City Beach",-31.923759999999998,115.7645,993,1450000
"1 Sistina Road, Ashby","Ashby",-31.737409999999997,115.79968000000001,598,450000
"1 Skye Lane, Ellenbrook","Ellenbrook",-31.76905861,115.97536869999999,386,320000
"1 Smailes Elbow, Brookdale","Brookdale",-32.17057292,116.00579029999999,385,228750
"1 Smitherson Street, Noranda","Noranda",-31.871540000000003,115.89043999999998,685,585000
"1 Smullin Street, Hamilton Hill","Hamilton Hill",-32.08078,115.77248,448,470000
"1 SNOWY RISE, Hammond Park","Hammond Park",-32.1635692,115.84847749999999,581,445000
"1 Solly Court, Bull Creek","Bull Creek",-32.05328,115.86667,847,1300000
"1 Spargo Street, Myaree","Myaree",-32.04014104,115.8187311,437,765000
"1 Spring Hill, Tapping","Tapping",-31.72506041,115.79137279999999,554,597000
"1 Spruce Place, Thornlie","Thornlie",-32.0647,115.9436,612,490000
"1 Spruce Terrace, Aubin Grove","Aubin Grove",-32.17607691,115.85954070000001,516,512888
"1 St Fillans Bend, Wanneroo","Wanneroo",-31.778209999999998,115.80773,632,465000
"1 St Ives Loop, Kallaroo","Kallaroo",-31.793870000000002,115.73713000000001,1000,2195000
"1 Stephen Street, Queens Park","Queens Park",-32.0038586,115.9476433,305,480000
"1 Stitfold Promenade, Salter Point","Salter Point",-32.01832,115.85813999999999,542,1300000
"1 Stokesay Street, Orelia","Orelia",-32.229927,115.821234,594,418000
"1 Strathmore Parkway, Ellenbrook","Ellenbrook",-31.771121,115.97241799999999,360,350000
"1 Strathpine Chase, Landsdale","Landsdale",-31.81223,115.86368,699,575000
"1 Strelley Lane, Carramar","Carramar",-31.71053,115.78255,675,512600
"1 Stretton Way, Kenwick","Kenwick",-32.03748,115.97882,659,275000
"1 Strickland Court, Coogee","Coogee",-32.11715,115.77514,705,770000
"1 Styne Road, City Beach","City Beach",-31.92540258,115.7613588,736,1800000
"1 Success Crescent, Salter Point","Salter Point",-32.02154,115.85943999999999,876,1555000
"1 Swallow Grove, Waikiki","Waikiki",-32.31177,115.74693,693,360000
"1 Sweeney Way, Padbury","Padbury",-31.799570000000003,115.75498,697,579000
"1 Talisker Mews, Ballajura","Ballajura",-31.84665,115.91469,585,420000
"1 Tall Karri Close, Camillo","Camillo",-32.11623105,116.00397609999999,695,370000
"1 Tattler Place, Huntingdale","Huntingdale",-32.08391766,115.968026,754,323000
"1 Taylor Street, White Gum Valley","White Gum Valley",-32.06176,115.77391999999999,519,845000
"1 Teetree Court, Beechboro","Beechboro",-31.8662,115.92272,706,500000
"1 Temple Mews, Iluka","Iluka",-31.74,115.72891000000001,822,928250
"1 Tenella Mews, Warnbro","Warnbro",-32.34082,115.76518,532,300000
"1 Tennyson Street, Bellevue","Bellevue",-31.89756,116.03251999999999,934,400000
"1 Tetbury Road, Butler","Butler",-31.65352168,115.70648590000002,535,500000
"1 The Mead, Kiara","Kiara",-31.87955,115.93666999999999,535,450000
"1 The Mews, Kardinya","Kardinya",-32.060320000000004,115.82225,700,730000
"1 Thomas Hamilton Avenue, Mirrabooka","Mirrabooka",-31.86795,115.86599,516,450000
"1 Thorman Place, Booragoon","Booragoon",-32.03310283,115.84191840000001,829,905000
"1 Thornbill Loop, Beeliar","Beeliar",-32.12948,115.82358,435,429000
"1 Thurlow Avenue, Yokine","Yokine",-31.9010744,115.8557645,386,525000
"1 Till Street, Herne Hill","Herne Hill",-31.82556,116.02173,808,370000
"1 Tintern Road, Ashby","Ashby",-31.73707065,115.80014640000002,298,465000
"1 Tippett Court, Willetton","Willetton",-32.06054,115.89665,686,680000
"1 Tiwi Court, Iluka","Iluka",-31.73075,115.73307,688,826000
"1 Tolbury Retreat, Kiara","Kiara",-31.88237,115.94231,653,420000
"1 Torre Link, Darch","Darch",-31.816572999999998,115.851355,518,560000
"1 Torridon Loop, Wanneroo","Wanneroo",-31.77572,115.8076,740,725000
"1 Treaty Oak Cove, Bibra Lake","Bibra Lake",-32.09059,115.81411000000001,830,600000
"1 Treave Street, Cloverdale","Cloverdale",-31.97036143,115.94098899999999,311,450000
"1 Triller Road, Bennett Springs","Bennett Springs",-31.85787729,115.92868159999999,515,515000
"1 Trilogy Court, The Vines","The Vines",-31.76598,115.99372,1545,1030000
"1 Trona Place, Forrestfield","Forrestfield",-31.98870201,115.9899781,572,395000
"1 Tropicana Way, Safety Bay","Safety Bay",-32.31132,115.73453,856,753000
"1 Troy Avenue, Marmion","Marmion",-31.84345,115.75221,899,1600000
"1 Tucker Street, Medina","Medina",-32.2316,115.79954,931,270000
"1 Tullow Road, Floreat","Floreat",-31.93726426,115.78148370000001,971,1575000
"1 Turner Parkway, Carramar","Carramar",-31.71046806,115.79757790000001,624,479100
"1 Turner Street, Warnbro","Warnbro",-32.33464,115.74926,872,310000
"1 TWIN VIEW, Swan View","Swan View",-31.87482,116.05266999999999,869,595000
"1 Umina Street, High Wycombe","High Wycombe",-31.93901263,116.00882390000001,764,296000
"1 Valencia Avenue, Churchlands","Churchlands",-31.91611563,115.78548290000002,497,935000
"1 Vantage Way, Burswood","Burswood",-31.95795076,115.89744329999999,301,1585000
"1 Veldt Mews, Mirrabooka","Mirrabooka",-31.851770000000002,115.86838,677,370000
"1 Venetian Way, Baldivis","Baldivis",-32.3154684,115.81686359999999,526,435000
"1 Verve Court, Marmion","Marmion",-31.84166857,115.7533065,459,1255000
"1 Vilamour Close, Currambine","Currambine",-31.74087,115.74556000000001,773,582000
"1 Viola Place, Beechboro","Beechboro",-31.86855,115.9236,500,485000
"1 Violet Street, Middle Swan","Middle Swan",-31.87861,116.00863999999999,830,410000
"1 Virgilia Terrace, South Lake","South Lake",-32.10389,115.84902,708,565000
"1 Voyager Link, Pearsall","Pearsall",-31.78514118,115.8253031,318,449000
"1 Wake Court, Redcliffe","Redcliffe",-31.94074,115.94536000000001,416,390000
"1 Wallace Street, Mundijong","Mundijong",-32.29332,115.98001000000001,1999,640000
"1 Wambiri Close, South Lake","South Lake",-32.11270143,115.84148629999999,517,510000
"1 Warlu Place, High Wycombe","High Wycombe",-31.934690000000003,116.00074,620,315000
"1 Warnt Court, South Guildford","South Guildford",-31.91635,115.98743999999999,742,430000
"1 Waterway Crescent, Ascot","Ascot",-31.936870000000003,115.91779,556,1250000
"1 Wattle Court, Mahogany Creek","Mahogany Creek",-31.902379999999997,116.1394,2001,740000
"1 Wayford Circle, Hocking","Hocking",-31.769759999999998,115.81381999999999,622,595000
"1 Webb Street, Rossmoyne","Rossmoyne",-32.0421094,115.8669182,531,670000
"1 Weema Court, Swan View","Swan View",-31.89084,116.04308999999999,1068,560000
"1 Weetman Cove, Cannington","Cannington",-32.00447,115.9314,281,402600
"1 Wendo Court, Hillman","Hillman",-32.28523,115.76052,693,345000
"1 Wenstead Place, Stratton","Stratton",-31.86627,116.03828,686,357000
"1 Werri Place, Clarkson","Clarkson",-31.69303,115.73056000000001,344,378000
"1 Wescap Rise, Merriwa","Merriwa",-31.671509999999998,115.71105,684,300000
"1 Whelk Place, Mullaloo","Mullaloo",-31.775779999999997,115.74413,706,775000
"1 White Place, Subiaco","Subiaco",-31.94306086,115.8343902,261,753000
"1 White Street, North Fremantle","North Fremantle",-32.032201,115.75345630000001,329,785000
"1 Wildwood Mews, Carramar","Carramar",-31.69045846,115.7891053,586,539000
"1 Willard Circuit, Banksia Grove","Banksia Grove",-31.69154391,115.80436329999999,313,385000
"1 Williams Court, Melville","Melville",-32.03883414,115.802797,513,1200000
"1 Williamson Way, Trigg","Trigg",-31.86704956,115.7609603,442,840000
"1 Willow Way, Gooseberry Hill","Gooseberry Hill",-31.95625,116.03402,957,650000
"1 Wilson Lane, Bateman","Bateman",-32.04654,115.85061,617,654000
"1 Wimbledon Drive, Kingsley","Kingsley",-31.8122,115.78862,700,627500
"1 Windoo Place, Koongamia","Koongamia",-31.904420000000002,116.04303999999999,751,292500
"1 Windoo Road, Parkerville","Parkerville",-31.88249,116.13283,2404,655000
"1 Wintergreene Drive, Bennett Springs","Bennett Springs",-31.85752763,115.93224140000001,666,492000
"1 Wissota Pass, Secret Harbour","Secret Harbour",-32.40748,115.76296,613,546000
"1 Woodbine Loop, Tapping","Tapping",-31.71472,115.78781000000001,700,500000
"1 Woodbine Terrace, Mirrabooka","Mirrabooka",-31.852529999999998,115.87533,765,420000
"1 Woodfield Close, Mount Helena","Mount Helena",-31.866459999999996,116.21108000000001,2000,435000
"1 Woodlands Way, Jandakot","Jandakot",-32.10266016,115.85537040000001,441,600000
"1 Yilgarn Street, White Gum Valley","White Gum Valley",-32.0622,115.76196999999999,411,925000
"1 Yule Street, City Beach","City Beach",-31.921529999999997,115.76581000000002,975,1550000
"1 Zanzibar Loop, Aveley","Aveley",-31.78504845,115.9852646,687,540000
"1/1 Coolgardie Street, West Perth","West Perth",-31.94893602,115.84773249999999,813,480000
"1/1 French Street, Ashfield","Ashfield",-31.91532844,115.9340203,345,455000
"1/1 Lentona Road, Attadale","Attadale",-32.03103,115.81324,1982,419000
"1/1 Muriel Avenue, Woodlands","Woodlands",-31.901786199999997,115.7918351,270,960000
"1/1 Wingfield Avenue, Crawley","Crawley",-31.97354047,115.82474340000002,221,950000
"1/10 Gibson Street, Mount Pleasant","Mount Pleasant",-32.01903093,115.84510049999999,373,640000
"1/11 Adamson Road, Brentwood","Brentwood",-32.044270000000004,115.85158,774,555000
"1/11 Elvire Street, Viveash","Viveash",-31.88478314,116.000386,396,400000
"1/11 Stott Close, Armadale","Armadale",-32.13668855,116.00913359999998,2354,156500
"1/11 Waterway Crescent, Ascot","Ascot",-31.936809999999998,115.91663999999999,462,482000
"1/125 Swansea Street, East Victoria Park","East Victoria Park",-31.988670000000003,115.90918,442,430000
"1/126 Telford Crescent, Stirling","Stirling",-31.89162083,115.81625729999999,265,615000
"1/13 Helm Street, Mount Pleasant","Mount Pleasant",-32.014920000000004,115.84983999999999,364,807000
"1/13 Sorrento Street, North Beach","North Beach",-31.85923,115.7537,183,850000
"1/14 Godwit Street, Queens Park","Queens Park",-32.00256687,115.9384797,1768,400000
"1/14 Greenshank Drive, Joondalup","Joondalup",-31.74711277,115.77699070000001,500,640000
"1/14 Mineral Place, Forrestfield","Forrestfield",-31.9926,115.99577,440,341500
"1/14a Norman Street, St James","St James",-31.99502415,115.9153033,266,450000
"1/15 Bredgar Way, Marangaroo","Marangaroo",-31.830940000000002,115.82938999999999,500,340000
"1/15 Cook Street, Crawley","Crawley",-31.983729999999998,115.81622,1366,625000
"1/15 Lisbon Court, Parkwood","Parkwood",-32.04397,115.90671999999999,1012,339000
"1/159 Mcdonald Street, Joondanna","Joondanna",-31.90575,115.83333,809,422000
"1/16 Leverburgh Street, Ardross","Ardross",-32.0312658,115.8351564,200,766000
"1/16 Tavistock Crescent, Lynwood","Lynwood",-32.03661923,115.93133590000002,1037,370000
"1/163 Tyler Street, Tuart Hill","Tuart Hill",-31.89775993,115.8305517,2024,140000
"1/164 McDonald Street, Joondanna","Joondanna",-31.90636,115.83417,1062,640000
"1/165 Canning Highway, South Perth","South Perth",-31.98431925,115.8740861,717,680000
"1/17 Elizabeth Street, East Cannington","East Cannington",-32.00368064,115.9604578,339,408000
"1/18 Coongan Avenue, Greenmount","Greenmount",-31.90310952,116.0443219,675,527500
"1/18 Devon Way, Lynwood","Lynwood",-32.03803937,115.93163359999998,378,387000
"1/18 Mary Street, Highgate","Highgate",-31.93780339,115.8687732,183,742000
"1/182 Fulham Street, Kewdale","Kewdale",-31.96767315,115.9347638,146,300000
"1/19 Drabble Road, Scarborough","Scarborough",-31.89980869,115.76382749999999,1886,721000
"1/19 Flora Terrace, Watermans Bay","Watermans Bay",-31.847625,115.755343,216,500000
"1/19 Roseheath Boulevard, Kiara","Kiara",-31.87950075,115.93788190000001,351,370000
"1/19 Tamar Street, Palmyra","Palmyra",-32.04445,115.78021000000001,1048,500000
"1/20 Holton Way, Cannington","Cannington",-32.01118689,115.93788500000001,261,335000
"1/202 Crawford Road, Inglewood","Inglewood",-31.91821,115.8891,357,485000
"1/205 French Street, Tuart Hill","Tuart Hill",-31.895970000000002,115.83657,1215,525000
"1/208 Albert Street, Osborne Park","Osborne Park",-31.89402,115.82600000000001,1012,365000
"1/21 Fletcher Street, Applecross","Applecross",-32.01885,115.8339,219,685000
"1/218 Westview Street, Scarborough","Scarborough",-31.89767,115.7743,1277,450000
"1/22 Ada Street, Watermans Bay","Watermans Bay",-31.849970000000003,115.75395,397,1250000
"1/22 Harper Street, Woodbridge","Woodbridge",-31.888579999999997,115.99603,151,395000
"1/22 Manoff Road, Balcatta","Balcatta",-31.886740000000003,115.83599,776,292000
"1/22 Prinsep Road, Melville","Melville",-32.03603452,115.7972473,377,655000
"1/22 Redgate Court, Kiara","Kiara",-31.88305922,115.9412048,363,410000
"1/23 Avonmore Terrace, Cottesloe","Cottesloe",-32.00378889,115.75369679999999,910,670000
"1/23 Golf Road, Parkwood","Parkwood",-32.040209999999995,115.90682,286,338000
"1/24 Coventry Road, Shoalwater","Shoalwater",-32.29384,115.70783999999999,1535,310000
"1/242 French Street, Tuart Hill","Tuart Hill",-31.89354,115.83735,239,432000
"1/265 Kooyong Road, Kewdale","Kewdale",-31.97222,115.92651000000001,1620,357500
"1/268 Guildford Road, Maylands","Maylands",-31.92926,115.89885,891,432000
"1/28 Alday Street, St James","St James",-31.99496,115.91071000000001,312,530000
"1/29 Seaforth Road, Shoalwater","Shoalwater",-32.30242393,115.70865020000001,340,600000
"1/29 Spoonbill Place, Queens Park","Queens Park",-32.00705737,115.9510611,281,435000
"1/29 Stratford Street, East Fremantle","East Fremantle",-32.03557,115.77361,912,430000
"1/3 Addlewell Glen, Kiara","Kiara",-31.88059883,115.93412260000001,454,370000
"1/3 Clive Road, Cottesloe","Cottesloe",-31.98787501,115.76805520000002,235,1026000
"1/3 Hope Road, Palmyra","Palmyra",-32.03864,115.79073000000001,303,445000
"1/3 Stockman Way, Cannington","Cannington",-32.00735,115.93221000000001,368,508000
"1/30 Milford Way, Nollamara","Nollamara",-31.88827121,115.8428688,701,450000
"1/301 Oxford Street, Leederville","Leederville",-31.92956755,115.8409125,181,400000
"1/31 Harvest Road, North Fremantle","North Fremantle",-32.03291416,115.75683670000001,359,1100000
"1/31 Mosaic Street, Shelley","Shelley",-32.02547,115.89323,1390,755000
"1/31 Second Avenue, Kensington","Kensington",-31.97673,115.88445,237,780000
"1/31 Troy Terrace, Daglish","Daglish",-31.95121831,115.81018359999999,810,1250000
"1/31 Villiers Street, Yokine","Yokine",-31.89378,115.84868999999999,243,370000
"1/32 Hubert Road, Maylands","Maylands",-31.93513084,115.9022045,2024,420000
"1/326 Preston Point Road, Attadale","Attadale",-32.03167662,115.79809250000001,400,675000
"1/33 Holmesdale Road, Woodbridge","Woodbridge",-31.893440000000002,115.9919,1012,335000
"1/33 Steward Way, Orelia","Orelia",-32.23198,115.81727,205,160000
"1/335 Oxford Street, Leederville","Leederville",-31.92760335,115.84088940000001,243,880000
"1/34 Banksia Street, Joondanna","Joondanna",-31.91118678,115.8401045,257,585000
"1/341 Wharf Street, Queens Park","Queens Park",-31.99952,115.95371999999999,1474,315000
"1/35 Collier Avenue, Balcatta","Balcatta",-31.87862,115.83182,246,341000
"1/36 Wood Street, Inglewood","Inglewood",-31.915977299999998,115.88792040000001,174,565000
"1/38 Brandon Street, Kensington","Kensington",-31.97954972,115.8793322,631,600000
"1/38 Norman Street, St James","St James",-31.99717,115.91698999999998,265,360000
"1/39 Ferguson Street, Midvale","Midvale",-31.88973,116.01888999999998,1058,400000
"1/4 Classic Rise, Pearsall","Pearsall",-31.78428816,115.81987790000001,300,465000
"1/4 Lentona Road, Attadale","Attadale",-32.03115,115.81272,327,490000
"1/4 Leslie Street, Cannington","Cannington",-32.01254,115.93065,399,430000
"1/4 Manley Street, Cannington","Cannington",-32.01043,115.93263999999999,102,334000
"1/4 Talbot Road, Woodlands","Woodlands",-31.90822,115.79916999999999,201,415000
"1/41 Hooley Road, Midland","Midland",-31.88941029,116.01773670000001,535,337500
"1/41 Renwick Street, South Perth","South Perth",-31.986759999999997,115.87168,836,730000
"1/42 Byers Road, Woodbridge","Woodbridge",-31.88911975,115.9960348,1310,316000
"1/43 Ferguson Street, Middle Swan","Middle Swan",-31.86558536,116.0227493,440,445000
"1/43 John Street, Inglewood","Inglewood",-31.92401558,115.8858263,1012,630000
"1/46 Charles Street, Midland","Midland",-31.883591,116.00896399999999,1012,167500
"1/48 Collier Avenue, Balcatta","Balcatta",-31.87694,115.83202,1012,359000
"1/48 Thelma Street, Como","Como",-31.99595,115.86403,1062,525000
"1/49 Discovery Circuit, Iluka","Iluka",-31.74098689,115.72707009999999,372,715000
"1/49 South Street, Kardinya","Kardinya",-32.06825,115.82245,810,405000
"1/5 Arpent Link, Brabham","Brabham",-31.81423191,115.9741424,365,364000
"1/50 King Street, Coogee","Coogee",-32.11103,115.77219,299,440000
"1/50 Monmouth Street, Mount Lawley","Mount Lawley",-31.92983,115.86548,1000,625000
"1/53 Carrington Street, Palmyra","Palmyra",-32.04404,115.77909,1048,420000
"1/58 Second Avenue, Rossmoyne","Rossmoyne",-32.03752153,115.8668993,474,975000
"1/584 Canning Highway, Attadale","Attadale",-32.03055,115.81537,1849,370000
"1/6 Bellevue Terrace, West Perth","West Perth",-31.956590000000002,115.84513000000001,2133,2300000
"1/6 Cato Street, Glendalough","Glendalough",-31.917240000000003,115.8207,248,515000
"1/6 Pearse Street, North Fremantle","North Fremantle",-32.03635132,115.7528121,250,665000
"1/63 Sayer Street, Midland","Midland",-31.88482,116.00997,246,330000
"1/67 Upton Street, St James","St James",-32.00305,115.90881999999999,224,365000
"1/69 Calais Road, Scarborough","Scarborough",-31.904870000000003,115.76777,1012,600000
"1/7 Chidlow Street, Mount Helena","Mount Helena",-31.875718699999997,116.21466869999999,598,470000
"1/7 Hodgson Lane, Mundaring","Mundaring",-31.90290468,116.17001950000001,249,400000
"1/79 Hardy Road, Ashfield","Ashfield",-31.92046966,115.9385534,401,370000
"1/79 Sayer Street, Midland","Midland",-31.88318403,116.0099757,172,360000
"1/8 Benson Court, Mount Nasura","Mount Nasura",-32.13543175,116.01870490000002,406,375000
"1/8 Betula Street, Riverton","Riverton",-32.03604437,115.89294140000001,807,720000
"1/8 Sonia Street, Scarborough","Scarborough",-31.9045,115.77153999999999,277,494000
"1/86 Ivanhoe Street, Eden Hill","Eden Hill",-31.894140000000004,115.94666000000001,349,409500
"1/9 Glencairn Way, Parkwood","Parkwood",-32.04527,115.91988,1598,378000
"1/94 Kathleen Street, Bassendean","Bassendean",-31.91236403,115.94446229999998,1803,530000
"1/95 Kent Street, Rockingham","Rockingham",-32.27162,115.73886,227,360000
"1/96 North Beach Road, North Beach","North Beach",-31.86073,115.76267,468,777000
"1/99 Roberts Road, Subiaco","Subiaco",-31.94575,115.83556000000002,804,450000
"10 Aberdare Way, Warwick","Warwick",-31.83829,115.80963,714,555000
"10 Abingdon Place, Kelmscott","Kelmscott",-32.12503616,116.0015605,789,213000
"10 Abrolhos Drive, Heathridge","Heathridge",-31.76838,115.75301999999999,486,560000
"10 Ada Street, Watermans Bay","Watermans Bay",-31.85005862,115.75280890000002,1024,1730000
"10 Addingham Crescent, Bertram","Bertram",-32.25049428,115.8456071,593,455000
"10 Adelong Circuit, Merriwa","Merriwa",-31.66168,115.70634,507,250000
"10 Adonis Street, Mundijong","Mundijong",-32.296929999999996,115.97762,2126,332000
"10 Aitken Place, Noranda","Noranda",-31.87305,115.8852,700,578000
"10 Albert Street, Bellevue","Bellevue",-31.899790000000003,116.03732,629,450000
"10 Aleaha Brace, Aveley","Aveley",-31.77608885,115.9871773,475,291000
"10 Alford Way, Alkimos","Alkimos",-31.62974333,115.70510120000002,300,385000
"10 Altai Dale, Stratton","Stratton",-31.8674,116.04558999999999,609,435000
"10 Ameer Way, Beeliar","Beeliar",-32.13200555,115.8072612,501,530000
"10 Amery Road, Hocking","Hocking",-31.766090000000002,115.81806,543,495000
"10 Andrews Way, Herne Hill","Herne Hill",-31.828000000000003,116.02165,813,380000
"10 Anstey Street, Mundijong","Mundijong",-32.29592449,115.98333970000002,2028,550000
"10 Antigua Place, Southern River","Southern River",-32.08761,115.95233999999999,567,455000
"10 Apara Place, Koongamia","Koongamia",-31.90530269,116.0471945,1086,389000
"10 Aparri Way, Port Kennedy","Port Kennedy",-32.366395000000004,115.75050990000001,640,360000
"10 Appleby Drive, Darch","Darch",-31.81691526,115.8459507,601,505000
"10 APPLETON Road, Piara Waters","Piara Waters",-32.14126833,115.9164837,560,485000
"10 Apsley Bend, Tapping","Tapping",-31.710674400000002,115.80064399999999,624,600000
"10 Araucaria Boulevard, Byford","Byford",-32.20741362,116.0063434,564,318000
"10 Archdeacon Street, Nedlands","Nedlands",-31.97937,115.81034,810,1690000
"10 Archimedes Crescent, Tapping","Tapping",-31.71719329,115.8019612,571,430000
"10 Arkwell Street, Willagee","Willagee",-32.0481,115.80706,810,832000
"10 Armitage Close, South Guildford","South Guildford",-31.908379999999998,115.98673000000001,475,380000
"10 ARTARMON RISE, Kallaroo","Kallaroo",-31.78872,115.74035,936,1140000
"10 Astrolabe Way, Swan View","Swan View",-31.87848391,116.0393199,484,340000
"10 Aurora Drive, Atwell","Atwell",-32.147090000000006,115.86256000000002,707,537000
"10 Axewood Place, Beechboro","Beechboro",-31.8668,115.92071999999999,699,406000
"10 Aylesbury Close, Jandakot","Jandakot",-32.105920000000005,115.85308,627,530000
"10 Baddesley Street, Butler","Butler",-31.65134,115.70347,543,375000
"10 Bahama Way, Banksia Grove","Banksia Grove",-31.693206,115.80335840000001,360,350000
"10 Banchory Way, The Vines","The Vines",-31.75125034,116.00810829999999,763,610000
"10 Banksia Court, Bullsbrook","Bullsbrook",-31.66033971,116.041524,663,370000
"10 Barcelona Terrace, Hocking","Hocking",-31.76894,115.82118999999999,566,539000
"10 Barcroft Court, Atwell","Atwell",-32.1373,115.86628,360,395000
"10 Barnden Road, Helena Valley","Helena Valley",-31.91701081,116.02610200000001,600,695500
"10 Barrington Avenue, Champion Lakes","Champion Lakes",-32.11564044,115.9928519,420,185000
"10 Basedow Chase, Banksia Grove","Banksia Grove",-31.69301704,115.80555679999999,440,445000
"10 Basico Avenue, Sinagra","Sinagra",-31.73743,115.80558,613,549000
"10 Batavia Way, Salter Point","Salter Point",-32.0222,115.86203,842,966000
"10 Bathgate Loop, Koondoola","Koondoola",-31.839540000000003,115.85996000000002,600,415000
"10 Becket Court, Camillo","Camillo",-32.11736136,115.9997324,711,320000
"10 Bedale Street, Dianella","Dianella",-31.89984,115.88791,373,545000
"10 Beechcroft Place, Camillo","Camillo",-32.11975434,115.9913258,707,240000
"10 Belaring Place, Kenwick","Kenwick",-32.046079999999996,115.97173000000001,323,430000
"10 Belfast Crescent, Ridgewood","Ridgewood",-31.658308,115.718014,423,333000
"10 Bellport Parade, Mindarie","Mindarie",-31.68283,115.7123,689,670000
"10 Belvoir Place, Ballajura","Ballajura",-31.839370000000002,115.90665,601,430000
"10 Beor Way, Herne Hill","Herne Hill",-31.828090000000003,116.02045,809,350000
"10 Berkeley Street, Heathridge","Heathridge",-31.75740427,115.7494229,363,450000
"10 Berlotto Drive, Ashby","Ashby",-31.7291,115.7988,425,510000
"10 Berrigan Drive, South Lake","South Lake",-32.11442,115.8373,702,380000
"10 Bertram Street, Dianella","Dianella",-31.8843,115.8697,464,350000
"10 Beverley Street, Coolbinia","Coolbinia",-31.913040000000002,115.85388999999999,806,1188000
"10 Biara Road, Yanchep","Yanchep",-31.53078348,115.6333185,403,272000
"10 Bight Reefs Road, Singleton","Singleton",-32.45185,115.75188,892,432500
"10 Bilkurra Way, Mount Nasura","Mount Nasura",-32.14465711,116.02509170000002,788,289000
"10 Billing Way, Caversham","Caversham",-31.868103899999998,115.97396470000001,513,665000
"10 Binar Court, South Guildford","South Guildford",-31.9154,115.98796999999999,787,400000
"10 Binden Place, Hamersley","Hamersley",-31.851020000000002,115.80516000000001,737,510000
"10 Bingarra Close, Port Kennedy","Port Kennedy",-32.3633,115.75393000000001,691,390000
"10 Bingfield Road, Medina","Medina",-32.230909999999994,115.80013000000001,728,265000
"10 Binnia Mews, Harrisdale","Harrisdale",-32.11528769,115.91684640000001,451,430000
"10 Birch Place, Stoneville","Stoneville",-31.873293100000005,116.1631578,1843,560000
"10 Birchgrove Court, Bibra Lake","Bibra Lake",-32.093090000000004,115.81258100000001,502,585000
"10 Birkenhead Ridge, Mindarie","Mindarie",-31.68365,115.70563,738,835000
"10 Bishop Riley Way, Churchlands","Churchlands",-31.914620000000003,115.79848999999999,737,1850000
"10 Blackboy Road, Greenmount","Greenmount",-31.89414279,116.04232730000001,903,490000
"10 Blackman Road, Mount Pleasant","Mount Pleasant",-32.0339,115.84557,729,1475000
"10 Bland Street, Kensington","Kensington",-31.98684,115.87738,787,1250000
"10 Blenny Close, Cannington","Cannington",-32.00823,115.92839,697,476000
"10 Block Place, Ocean Reef","Ocean Reef",-31.76047,115.73436000000001,890,1000000
"10 Bondini Way, Bibra Lake","Bibra Lake",-32.08923,115.8452,719,522000
"10 Booligal Street, Lesmurdie","Lesmurdie",-32.00325,116.05748,1195,425000
"10 Bosbaan Place, Champion Lakes","Champion Lakes",-32.11842915,115.99103149999999,451,196000
"10 Bowen Place, Stoneville","Stoneville",-31.87084,116.16967,1955,520000
"10 Bradbury Place, Alexander Heights","Alexander Heights",-31.83365836,115.855598,403,331500
"10 Braden Way, Marmion","Marmion",-31.840840000000004,115.75482,720,1620000
"10 Brae Court, Cooloongup","Cooloongup",-32.28796,115.76467,933,330000
"10 Bramley Terrace, The Vines","The Vines",-31.74862473,116.01549650000001,714,555000
"10 Brantwood Turn, Wellard","Wellard",-32.27244793,115.8251769,449,396000
"10 Brassey Street, Swanbourne","Swanbourne",-31.97735,115.76905,607,1810000
"10 Breton Court, Ballajura","Ballajura",-31.85241,115.90676,504,421000
"10 Bricknell Road, Attadale","Attadale",-32.03012399,115.8065635,1410,830000
"10 Bridges Rise, Kiara","Kiara",-31.883979999999998,115.94402,484,390000
"10 Bridget Place, Shelley","Shelley",-32.0312,115.88066,1029,1600000
"10 Brigalow Way, Armadale","Armadale",-32.14575785,115.9968621,713,220000
"10 Brinckley Crescent, Koondoola","Koondoola",-31.846840000000004,115.86353000000001,692,362000
"10 Bristow Street, Haynes","Haynes",-32.15943529,115.98889479999998,340,167000
"10 Broad Street, Kensington","Kensington",-31.98547,115.8791,420,1390000
"10 Broadbeach Boulevard, Hillarys","Hillarys",-31.79938,115.73726,828,955000
"10 Brolga Court, Beeliar","Beeliar",-32.135481,115.812451,639,570000
"10 Broomhall Way, Noranda","Noranda",-31.87892,115.88128,809,635000
"10 Brumby Avenue, Henley Brook","Henley Brook",-31.79678,115.97493999999999,528,507500
"10 Bungalow Court, Peppermint Grove","Peppermint Grove",-32.00224362,115.7683182,444,2400000
"10 Burleigh Drive, Burns Beach","Burns Beach",-31.72204212,115.7295584,576,860000
"10 Burnettia Lane, Mount Claremont","Mount Claremont",-31.968809999999998,115.79387,318,1100000
"10 Burtonia Place, Canning Vale","Canning Vale",-32.07801,115.91601000000001,770,680000
"10 BUTCHART TURN, Aubin Grove","Aubin Grove",-32.17005597,115.8665007,660,740000
"10 Byfield Road, Parkerville","Parkerville",-31.878079999999997,116.1375,1008,382000
"10 Cadoux Loop, Hocking","Hocking",-31.76724,115.81796000000001,864,470000
"10 Calabar Court, Merriwa","Merriwa",-31.66781,115.71056999999999,588,367000
"10 Cale Court, Maddington","Maddington",-32.0452898,116.0035196,510,375000
"10 Calgary Place, Kingsley","Kingsley",-31.80335,115.79328999999998,608,481000
"10 Calume Street, Hillman","Hillman",-32.281,115.76013999999999,701,310000
"10 Campbell Court, Noranda","Noranda",-31.878459999999997,115.90823999999999,867,651000
"10 Camrose Lane, Darch","Darch",-31.814125,115.85166000000001,549,531000
"10 Cantrell Circuit, Landsdale","Landsdale",-31.801959999999998,115.8607,710,645000
"10 Cape Le Grand Avenue, Aubin Grove","Aubin Grove",-32.16425,115.86205,713,705000
"10 Carnforth Road, Butler","Butler",-31.64565619,115.71287990000002,540,355500
"10 Carrick Way, Kinross","Kinross",-31.71878114,115.73950430000001,914,442500
"10 Cassidae Terrace, Karrinyup","Karrinyup",-31.88435,115.7786,434,1030000
"10 Castroreale Boulevard, Sinagra","Sinagra",-31.739420000000003,115.80313000000001,566,455000
"10 Celtic Crescent, Shoalwater","Shoalwater",-32.295295,115.71803700000001,459,390000
"10 Cereza Lane, Caversham","Caversham",-31.86442126,115.9669604,400,447500
"10 Cerulean Road, Karnup","Karnup",-32.44582454,115.76448140000001,405,179000
"10 Cestrum Rise, South Lake","South Lake",-32.10217,115.84692,741,550000
"10 Charles Street, South Fremantle","South Fremantle",-32.066140000000004,115.75361000000001,526,1600000
"10 Chauvel Court, Kiara","Kiara",-31.884590000000003,115.94288,501,430000
"10 Chelmsford Road, Mount Lawley","Mount Lawley",-31.93544269,115.87041090000001,309,845000
"10 Chenile Mews, Mirrabooka","Mirrabooka",-31.86195059,115.86542379999999,684,100000
"10 Chervil Bend, Wattle Grove","Wattle Grove",-32.00024008,115.9786658,599,560000
"10 Chesapeake Parade, Port Kennedy","Port Kennedy",-32.37457,115.74781000000002,754,480000
"10 Chesterfield Avenue, Hocking","Hocking",-31.76820029,115.82117029999999,296,460000
"10 Chestnut Street, Guildford","Guildford",-31.89824101,115.9826781,527,780000
"10 Chile Way, Aubin Grove","Aubin Grove",-32.17034822,115.8602413,460,555000
"10 Chinook Drive, Dayton","Dayton",-31.85412923,115.9724794,375,475000
"10 Chiswick Street, Wembley Downs","Wembley Downs",-31.91961,115.77247,787,1025000
"10 Chittawarra Court, Glen Forrest","Glen Forrest",-31.90263,116.09397,1901,567000
"10 Chivrell Rise, Gwelup","Gwelup",-31.85967,115.79843999999999,716,920000
"10 Choseley Place, Langford","Langford",-32.04214,115.94105,612,160000
"10 Christina Street, Hazelmere","Hazelmere",-31.90056,115.99444,2027,600000
"10 Christmas Avenue, Heathridge","Heathridge",-31.7578,115.75153,688,453500
"10 Churton Crescent, Warwick","Warwick",-31.843770000000003,115.80643,730,610000
"10 Citriadora Avenue, High Wycombe","High Wycombe",-31.9351915,116.01617320000001,635,575000
"10 Claiborne Road, Secret Harbour","Secret Harbour",-32.40964864,115.7713844,584,470000
"10 Classroom Loop, Coolbellup","Coolbellup",-32.08174536,115.81566240000001,375,510000
"10 Clayden Street, Wooroloo","Wooroloo",-31.80247,116.31128000000001,2427,358000
"10 Clearview Avenue, Burns Beach","Burns Beach",-31.726999,115.719527,610,1500000
"10 CLEMTON PLACE, Landsdale","Landsdale",-31.803079999999998,115.85826999999999,650,520000
"10 Cleopatra Circuit, Bertram","Bertram",-32.25330798,115.8438598,612,410000
"10 Clifton Street, Kelmscott","Kelmscott",-32.10738455,116.01903359999999,809,290000
"10 Clyde Road, Menora","Menora",-31.920409999999997,115.8592,759,1350000
"10 Clydesdale Street, Alfred Cove","Alfred Cove",-32.03257,115.81986,1095,855000
"10 Coatelan Drive, Stirling","Stirling",-31.89385,115.81251999999999,769,925000
"10 Coleridge Place, North Lake","North Lake",-32.08231,115.81971999999999,735,700000
"10 Colne Way, Girrawheen","Girrawheen",-31.8467,115.84241999999999,771,385000
"10 Columba Place, Peppermint Grove","Peppermint Grove",-32.002720000000004,115.76236999999999,704,1920000
"10 Como Way, Stirling","Stirling",-31.89153039,115.8180188,491,1240000
"10 Congdon Way, Booragoon","Booragoon",-32.04568,115.83038,812,750000
"10 Conimbla Lane, Aubin Grove","Aubin Grove",-32.166721,115.863079,654,660000
"10 Coniston Bend, Waikiki","Waikiki",-32.32137192,115.7589121,523,530000
"10 Coniston Drive, Ellenbrook","Ellenbrook",-31.770552000000002,115.971079,384,325000
"10 Connelly Place, Mount Helena","Mount Helena",-31.86496116,116.2187879,2001,565000
"10 Conrad Way, Currambine","Currambine",-31.733590000000003,115.75236000000001,719,597000
"10 Continental Boulevard, Currambine","Currambine",-31.73160661,115.74658190000001,588,760000
"10 Coogan Close, Yangebup","Yangebup",-32.12407,115.81538,730,400000
"10 Coolibah Drive, Greenwood","Greenwood",-31.832959999999996,115.80198999999999,683,476500
"10 Copper Lane, Wattle Grove","Wattle Grove",-31.991871000000003,115.9853869,556,500000
"10 Coralgum Green, South Lake","South Lake",-32.11381513,115.84328470000001,613,568000
"10 Corella Street, Lesmurdie","Lesmurdie",-32.00274,116.05497,1012,505000
"10 Cornell Place, East Cannington","East Cannington",-32.00555746,115.9618398,610,600000
"10 Correa Way, Mirrabooka","Mirrabooka",-31.85792356,115.8606111,690,365000
"10 Corrour Bend, Bertram","Bertram",-32.23866083,115.8439947,301,245000
"10 Cottontree Lane, Bennett Springs","Bennett Springs",-31.85826619,115.9282404,597,570000
"10 Coulsen Close, Noranda","Noranda",-31.87092,115.88559,676,675000
"10 Cowper Street, Lynwood","Lynwood",-32.04574,115.92518999999999,688,448000
"10 Coyne Street, Mount Helena","Mount Helena",-31.87661547,116.21273400000001,2023,355000
"10 Crab Cove, Mindarie","Mindarie",-31.690109999999997,115.70657,380,570000
"10 Crake Street, Ascot","Ascot",-31.93605,115.91608000000001,367,730000
"10 Cranberry Way, Kenwick","Kenwick",-32.03335,115.99283,568,316500
"10 Cranford Avenue, Mount Pleasant","Mount Pleasant",-32.040690000000005,115.85668000000001,456,750000
"10 Cranwell Road, Balcatta","Balcatta",-31.87493,115.82316999999999,788,880000
"10 Craven Street, Bedford","Bedford",-31.908640000000002,115.88817,589,615750
"10 Cresswell Place, Quinns Rocks","Quinns Rocks",-31.6643,115.7052,585,450000
"10 Creswick Cross, Kiara","Kiara",-31.88135,115.93632,525,168000
"10 Crossway, Swan View","Swan View",-31.878190000000004,116.03692,709,295000
"10 Crystal Turn, Bennett Springs","Bennett Springs",-31.86055183,115.93936540000001,544,435000
"10 Crystalview Cove, Ballajura","Ballajura",-31.83949,115.88668,1035,685000
"10 Currawong Court, Bennett Springs","Bennett Springs",-31.85860155,115.94487240000002,621,535000
"10 Currawong Crescent, Walliston","Walliston",-31.99178,116.06921000000001,1813,510000
"10 Curruthers Road, Mount Pleasant","Mount Pleasant",-32.03678729,115.8541122,433,830000
"10 Curtin Road, Marangaroo","Marangaroo",-31.822540000000004,115.83908000000001,510,426000
"10 Dacelo Vista, Waterford","Waterford",-32.01411569,115.89490359999998,450,559900
"10 Daly Circle, Langford","Langford",-32.03543,115.93609,500,550000
"10 Dane Court, Brookdale","Brookdale",-32.16819,116.00911,504,345000
"10 Daniels Place, Bertram","Bertram",-32.2513906,115.8381918,566,394000
"10 Darrowby Place, Sawyers Valley","Sawyers Valley",-31.90516,116.20613999999999,1836,597000
"10 Dartmouth Avenue, City Beach","City Beach",-31.94518,115.75797,607,1685000
"10 DAVID STREET, Kensington","Kensington",-31.98801,115.87496000000002,506,820000
"10 Daviesia Corner, Dayton","Dayton",-31.85640114,115.97024040000001,476,500000
"10 Davilak Crescent, Manning","Manning",-32.00953113,115.8652855,911,1080000
"10 De Grey Retreat, Jane Brook","Jane Brook",-31.85923,116.04368999999998,753,605000
"10 Dean Street, Mount Helena","Mount Helena",-31.8845,116.21382,1370,446000
"10 Denver Avenue, Madeley","Madeley",-31.80820188,115.82113159999999,1241,690000
"10 Derry Lane, Mosman Park","Mosman Park",-32.02211,115.7594,426,2070000
"10 Desertpea Road, Beeliar","Beeliar",-32.12791183,115.79085520000001,384,503000
"10 Deverall Square, Hillarys","Hillarys",-31.8008,115.74155,600,880000
"10 Direction Way, North Fremantle","North Fremantle",-32.031315,115.759115,259,1700000
"10 Domain Court, Greenmount","Greenmount",-31.89651853,116.0394502,709,410000
"10 Domeney Place, Landsdale","Landsdale",-31.80282,115.85833000000001,600,455000
"10 Donnelly Link, Jane Brook","Jane Brook",-31.859652,116.05168400000001,694,545000
"10 Doriemus Road, Baldivis","Baldivis",-32.33901884,115.8181152,609,692500
"10 Dorney Esplanade, Champion Lakes","Champion Lakes",-32.11350433,115.9932837,413,250000
"10 Dowlan Way, Ellenbrook","Ellenbrook",-31.763571000000002,115.97211599999999,552,385000
"10 Dublin Road, Darch","Darch",-31.80664726,115.83761340000001,576,570000
"10 Duff Place, Booragoon","Booragoon",-32.04466,115.83797,696,860000
"10 Dusenberg Mews, Atwell","Atwell",-32.13644,115.86403999999999,768,572500
"10 Duyfken Road, Jindalee","Jindalee",-31.65093472,115.69628529999999,270,384000
"10 Eastbourne Street, Mosman Park","Mosman Park",-32.0117,115.75913999999999,516,1317500
"10 Edmund Way, Calista","Calista",-32.25057,115.80413,809,250000
"10 Eildon Court, South Lake","South Lake",-32.10587,115.84552,700,472000
"10 Elbury Court, Kingsley","Kingsley",-31.81338,115.79503999999999,700,507000
"10 Elder Way, Bellevue","Bellevue",-31.90449933,116.0357307,700,435000
"10 Eldon Close, Merriwa","Merriwa",-31.666859999999996,115.71321999999999,623,380000
"10 Ellerby Way, Koondoola","Koondoola",-31.843220000000002,115.85667,771,435000
"10 Emperor Approach, Success","Success",-32.157059000000004,115.849746,569,550000
"10 Emu Court, High Wycombe","High Wycombe",-31.94448,116.0136,710,365000
"10 Ennis Court, Orelia","Orelia",-32.235929999999996,115.83208,734,212000
"10 Ensign Dale, Kelmscott","Kelmscott",-32.11119,116.02073,651,500000
"10 Erlon Way, Harrisdale","Harrisdale",-32.13284446,115.92802150000001,364,406500
"10 Essington Street, Huntingdale","Huntingdale",-32.07504,115.96478,710,405000
"10 Ethel Street, Guildford","Guildford",-31.9002933,115.96772920000001,488,1160000
"10 Etna Place, Rossmoyne","Rossmoyne",-32.032445,115.87194299999999,999,1895000
"10 Ewart Street, Midvale","Midvale",-31.89195,116.0223,526,235000
"10 Eyebright Court, Huntingdale","Huntingdale",-32.082770000000004,115.95622,599,511250
"10 Fagan Street, Yokine","Yokine",-31.89408,115.84196000000001,374,505000
"10 Fairview Street, Coogee","Coogee",-32.11291,115.76895,719,870000
"10 Fairywren Drive, Bennett Springs","Bennett Springs",-31.86018281,115.9318754,457,455000
"10 Falkirk Avenue, Maylands","Maylands",-31.931440000000002,115.89922,936,810000
"10 Fantail Avenue, Gwelup","Gwelup",-31.865879999999997,115.79274,519,960000
"10 Fantail Drive, Bibra Lake","Bibra Lake",-32.10349,115.82786000000002,702,595142
"10 Fantail Way, Huntingdale","Huntingdale",-32.08153,115.96378999999999,615,375000
"10 Farrier Terrace, Henley Brook","Henley Brook",-31.79778,115.97653000000001,554,472000
"10 Farringdon Way, Huntingdale","Huntingdale",-32.07327,115.97214,685,375000
"10 Fawn Way, Eglinton","Eglinton",-31.59707035,115.6646405,313,412000
"10 Feldman Crescent, Parkerville","Parkerville",-31.877440000000004,116.14248,1999,575000
"10 Finchley Terrace, Joondalup","Joondalup",-31.73264718,115.7691689,347,550000
"10 Finlay Court, Rivervale","Rivervale",-31.964979999999997,115.92228,350,520000
"10 Finsbury Grove, Mount Claremont","Mount Claremont",-31.96067,115.77747,680,1525000
"10 Fintry Close, Kinross","Kinross",-31.723159999999996,115.73401000000001,706,480000
"10 Firefalls Close, Huntingdale","Huntingdale",-32.080059999999996,115.9578,544,440000
"10 Flannan Place, Warwick","Warwick",-31.83734,115.79794,734,852500
"10 Fleetwood Link, Ellenbrook","Ellenbrook",-31.76983088,115.9773284,420,370000
"10 Fletcher Street, Applecross","Applecross",-32.017340000000004,115.83377,464,875000
"10 Fortview Road, Mount Claremont","Mount Claremont",-31.96185546,115.7727906,877,1775000
"10 Fourth Avenue, Rossmoyne","Rossmoyne",-32.0368,115.87063,814,1423888
"10 Frederic Street, Midland","Midland",-31.88505,116.00288,1090,565000
"10 Friarbird Terrace, Beeliar","Beeliar",-32.13439,115.812822,512,550000
"10 Gaffin Way, Kwinana Town Centre","Kwinana Town Centre",-32.24243868,115.8147429,203,162100
"10 Gairloch Place, Joondalup","Joondalup",-31.724629999999998,115.75871000000001,803,620000
"10 Galahad Way, Carine","Carine",-31.8525809,115.7955692,692,645000
"10 gallipoli street, Lathlain","Lathlain",-31.97001793,115.9026325,577,505000
"10 Gatton Way, Embleton","Embleton",-31.90024568,115.9148559,736,470000
"10 Gausson Turn, Ashby","Ashby",-31.7343265,115.7955863,524,393000
"10 Gemini Rise, Ocean Reef","Ocean Reef",-31.768990000000002,115.74461000000001,824,957000
"10 Georgetown Drive, Safety Bay","Safety Bay",-32.3023,115.73493,681,370000
"10 Gifford Mews, Currambine","Currambine",-31.73906,115.7547,701,668000
"10 Gilbreth Bend, Tapping","Tapping",-31.71787806,115.8021496,572,535000
"10 Giles Avenue, Padbury","Padbury",-31.806440000000002,115.7576,705,380000
"10 GLADALAN Way, Piara Waters","Piara Waters",-32.14063267,115.91717369999999,570,500000
"10 Glen Iris Drive, Jandakot","Jandakot",-32.09939,115.85391000000001,1066,1200000
"10 Glenallen Way, Ellenbrook","Ellenbrook",-31.770090999999997,115.972899,552,360000
"10 Glenbawn Drive, South Lake","South Lake",-32.10838,115.83447,702,422500
"10 Glenfine Way, Carramar","Carramar",-31.71128,115.77932,678,473200
"10 Glenten Way, Ferndale","Ferndale",-32.029959999999996,115.92981999999999,688,545000
"10 Glenwood Avenue, Helena Valley","Helena Valley",-31.91627,116.04522,2010,545000
"10 Godin Court, Churchlands","Churchlands",-31.91965,115.78653999999999,1225,1650000
"10 Goldfinch Bend, Harrisdale","Harrisdale",-32.12268001,115.9261395,420,471000
"10 Goshawk Place, Huntingdale","Huntingdale",-32.08493,115.9669,707,385000
"10 Grace Pass, Bennett Springs","Bennett Springs",-31.858490999999997,115.93149220000001,544,630000
"10 Granada Loop, Seville Grove","Seville Grove",-32.138616999999996,115.989919,660,350000
"10 Grand Boulevard, Canning Vale","Canning Vale",-32.08936,115.92051000000001,770,575000
"10 Graydon Grove, Leda","Leda",-32.26157,115.80925,700,285000
"10 Greenville Street, Swanbourne","Swanbourne",-31.97573,115.76591,474,1352000
"10 Greta Court, Cooloongup","Cooloongup",-32.3023,115.75357,716,310000
"10 Guernsey Court, Stratton","Stratton",-31.865340000000003,116.04536999999999,637,320000
"10 Gulli Court, Mount Claremont","Mount Claremont",-31.956647600000004,115.77672179999999,582,1850000
"10 Gwynne Corner, Jane Brook","Jane Brook",-31.861340000000002,116.05078,781,630000
"10 Halse Place, Karrinyup","Karrinyup",-31.86387388,115.7749976,948,1120000
"10 Hampshire Drive, Jindalee","Jindalee",-31.652390399999998,115.6976219,715,670000
"10 Harley Terrace, Mosman Park","Mosman Park",-32.01641,115.76338999999999,683,1250000
"10 Harmony Avenue, Clarkson","Clarkson",-31.681109999999997,115.72813000000001,546,370000
"10 Harwood Street, Hilton","Hilton",-32.06475,115.78533,810,740250
"10 Hayward Parade, Coogee","Coogee",-32.11673,115.77168,706,740000
"10 Hazelmere Crescent, Hazelmere","Hazelmere",-31.90250226,115.99264450000001,1401,390000
"10 Heathland Terrace, Ellenbrook","Ellenbrook",-31.76864707,115.97375359999998,405,300000
"10 Helena Street, Guildford","Guildford",-31.90108,115.97916000000001,920,630000
"10 Henderson Road, Stoneville","Stoneville",-31.881320000000002,116.17011000000001,2078,505000
"10 Hendy Green, Murdoch","Murdoch",-32.05993,115.8325,705,720000
"10 Hennessy Drive, Ashby","Ashby",-31.73420664,115.79858,620,590000
"10 Henniker Way, Koondoola","Koondoola",-31.843059999999998,115.86823999999999,692,340000
"10 Henty Grove, Helena Valley","Helena Valley",-31.9210256,116.033895,280,450000
"10 Hepworth Way, Noranda","Noranda",-31.877670000000002,115.88668999999999,700,612500
"10 Heywood Lane, North Coogee","North Coogee",-32.07877819,115.7553287,220,945000
"10 Hibiscus Court, Churchlands","Churchlands",-31.917709999999996,115.79138,801,1430000
"10 Hillcrest Court, Port Kennedy","Port Kennedy",-32.36176,115.75431,484,225000
"10 Hindmarsh Way, Edgewater","Edgewater",-31.75406,115.77888,776,628000
"10 Hodge Court, Marmion","Marmion",-31.843159999999997,115.7601,726,862000
"10 Hodges Street, Middle Swan","Middle Swan",-31.873866999999997,116.015225,248,344000
"10 Hodgson Street, Tuart Hill","Tuart Hill",-31.90538698,115.8320038,809,689000
"10 Hodnet Bend, The Vines","The Vines",-31.76233664,115.9876106,900,540000
"10 Hogg Avenue, Salter Point","Salter Point",-32.01948,115.86007,450,1225000
"10 Hollingsworth Avenue, Koondoola","Koondoola",-31.843059999999998,115.86028999999999,729,396000
"10 Hollister Way, Noranda","Noranda",-31.87425,115.88113,700,665000
"10 Hope Crescent, Lesmurdie","Lesmurdie",-31.98933,116.0578,2413,815000
"10 Horner Way, Herne Hill","Herne Hill",-31.82667,116.02243,809,405000
"10 Horrocks Road, Booragoon","Booragoon",-32.03497,115.82361999999999,405,595000
"10 Horslay Way, Noranda","Noranda",-31.87733,115.90369,701,585000
"10 Hovea Crescent, Walliston","Walliston",-31.99667,116.07086000000001,1004,385000
"10 Hubert Street, Guildford","Guildford",-31.90049,115.97451000000001,372,675000
"10 Hugh Street, Guildford","Guildford",-31.898290000000003,115.9745,371,710000
"10 Hynes Court, Huntingdale","Huntingdale",-32.08679,115.95801999999999,603,436000
"10 Hynes Way, Hamilton Hill","Hamilton Hill",-32.086490000000005,115.78398999999999,751,505000
"10 Indiana Parade, Singleton","Singleton",-32.4458,115.75238,809,795000
"10 Indus Vista, Alkimos","Alkimos",-31.62975052,115.6989111,375,355000
"10 Instone Street, Hilton","Hilton",-32.07333211,115.78306640000001,455,507500
"10 Iolanthe Street, Swanbourne","Swanbourne",-31.97537062,115.76619050000001,314,1170000
"10 Irene Place, Beldon","Beldon",-31.77652,115.7649,717,520000
"10 Irvine Street, Peppermint Grove","Peppermint Grove",-32.00002668,115.7627952,1678,2060000
"10 Jackman Street, Willagee","Willagee",-32.04786234,115.8096135,482,670000
"10 James Avenue, Hazelmere","Hazelmere",-31.901529999999998,115.99091000000001,1399,490000
"10 James Road, Swanbourne","Swanbourne",-31.97967188,115.76594309999999,1009,1500000
"10 Janeville Place, South Guildford","South Guildford",-31.89987,115.98821000000001,590,710000
"10 Jarman Avenue, Manning","Manning",-32.01418973,115.8668878,450,525000
"10 Jecks Street, Maida Vale","Maida Vale",-31.95632,116.01892,582,546000
"10 Jedburgh Loop, Sinagra","Sinagra",-31.73989409,115.79859240000002,245,315000
"10 Jenkyn Circle, Landsdale","Landsdale",-31.80856562,115.8569439,715,800000
"10 Jimbell Street, Mosman Park","Mosman Park",-32.01348,115.76584,816,1216000
"10 Jinan Road, Huntingdale","Huntingdale",-32.08543824,115.9619335,500,435000
"10 Jindabyne Street, Hilbert","Hilbert",-32.16394601,115.99177309999999,416,500000
"10 Joel Way, Wanneroo","Wanneroo",-31.75197,115.81777,576,411000
"10 John Street, Cottesloe","Cottesloe",-31.99483,115.75332,249,1900000
"10 Johnson Street, Guildford","Guildford",-31.901909999999997,115.96921,668,775000
"10 Johnston Way, Padbury","Padbury",-31.80405,115.77021,763,490000
"10 Jordan Street, Haynes","Haynes",-32.15811856,115.9911553,364,198000
"10 Kabiana Way, Dayton","Dayton",-31.85231344,115.9739221,225,315000
"10 Kakadu Rest, Bertram","Bertram",-32.24692,115.85138,663,430000
"10 Kallatina Drive, Iluka","Iluka",-31.7296772,115.7267111,504,857500
"10 Kamara Court, Wanneroo","Wanneroo",-31.763840000000002,115.80291000000001,684,420000
"10 Kaputar Court, Ballajura","Ballajura",-31.85258,115.91338999999999,517,340000
"10 Karamarra Place, Kingsley","Kingsley",-31.8147,115.80593999999999,692,560000
"10 Kardier Mews, Viveash","Viveash",-31.877309999999998,115.99721000000001,900,685000
"10 Kardinya Road, Kardinya","Kardinya",-32.059259999999995,115.818,701,720000
"10 Kari Court, Camillo","Camillo",-32.11233385,116.00070590000001,873,368000
"10 Karla Place, City Beach","City Beach",-31.90877,115.76325,821,1660000
"10 Keans Avenue, Sorrento","Sorrento",-31.82798,115.7497,564,940000
"10 Kearsley Rise, Murdoch","Murdoch",-32.06043,115.83835,747,997500
"10 Kenneally Circuit, Salter Point","Salter Point",-32.0179,115.85985,650,1250000
"10 Kerior Street, Mullaloo","Mullaloo",-31.780829999999998,115.73986000000001,844,835000
"10 Kerries Link, The Vines","The Vines",-31.748758000000002,116.01371499999999,768,635000
"10 Kessell Lane, Beldon","Beldon",-31.774070000000002,115.7739,744,421000
"10 Kiah Mews, Canning Vale","Canning Vale",-32.099090000000004,115.92711000000001,700,748000
"10 Kilmaine Road, Ridgewood","Ridgewood",-31.660153,115.719586,549,422500
"10 Kingston Heath Mews, Jandakot","Jandakot",-32.09701,115.85433,641,965000
"10 Kinross Crescent, Floreat","Floreat",-31.932090000000002,115.79262,835,1648000
"10 Kinta Street, City Beach","City Beach",-31.92866143,115.77116940000002,261,1346666
"10 Kinvara Way, Ridgewood","Ridgewood",-31.658557000000002,115.71891799999999,425,410000
"10 Kirkley Pass, Aveley","Aveley",-31.77784728,115.98029509999999,510,436000
"10 Kirribilli Court, Kallaroo","Kallaroo",-31.789579999999997,115.74176000000001,851,850000
"10 Klem Avenue, Redcliffe","Redcliffe",-31.95092,115.95078000000001,420,440000
"10 Knoll Place, Kiara","Kiara",-31.880329999999997,115.9355,594,460000
"10 Knutsford Street, Swanbourne","Swanbourne",-31.980988,115.765864,550,1545000
"10 Korovin Drive, Ashby","Ashby",-31.728720000000003,115.80167,570,500000
"10 Kullaroo Court, Hillman","Hillman",-32.283409999999996,115.76886,699,325000
"10 Kunzea Close, Maida Vale","Maida Vale",-31.95751,116.01963,451,450000
"10 Kurrawa Street, Hillman","Hillman",-32.28366041,115.7653812,713,330000
"10 La Grange Loop, Currambine","Currambine",-31.736320000000003,115.7502,662,575000
"10 Lakewood Avenue, Ascot","Ascot",-31.93733,115.91671000000001,385,755000
"10 Lambert Street, Alfred Cove","Alfred Cove",-32.03439793,115.8138179,504,867500
"10 Landbeach Boulevard, Butler","Butler",-31.64619758,115.7089145,594,470000
"10 Lansby Court, Riverton","Riverton",-32.034859999999995,115.89432,436,598000
"10 Laslett Circle, Mundaring","Mundaring",-31.89088,116.17298000000001,2009,649000
"10 Latham Street, Ashfield","Ashfield",-31.91912,115.93798000000001,744,432000
"10 Meek Court, Gosnells","Gosnells",-32.08493,115.98723000000001,958,260000
"10 Lautrec Loop, Ashby","Ashby",-31.7326925,115.7958042,450,485250
"10 Lavalle Rise, South Lake","South Lake",-32.09868,115.84631,700,505000
"10 Laverick Street, Haynes","Haynes",-32.1589505,115.98995459999999,559,210000
"10 Leanne Close, Woodvale","Woodvale",-31.795820000000003,115.79248,703,700000
"10 Leatherwood Way, Huntingdale","Huntingdale",-32.080659999999995,115.9587,522,415000
"10 Ledden Court, Success","Success",-32.13902,115.84768999999999,762,550000
"10 Lee Avenue, Hilton","Hilton",-32.06434105,115.7829646,892,320000
"10 Leghorn Road, Orelia","Orelia",-32.23424,115.83085,732,237500
"10 Leithdale Road, Darlington","Darlington",-31.92302,116.08221999999999,2315,600000
"10 Letterkenny Way, Hilbert","Hilbert",-32.17966826,115.98878540000001,400,440000
"10 Levey Rise, Winthrop","Winthrop",-32.04844,115.82136000000001,938,900000
"10 Leyland Street, St James","St James",-32.00246,115.90603999999999,722,805000
"10 Limerick Way, Fremantle","Fremantle",-32.05024558,115.76668909999998,340,672000
"10 Litoria Drive, Wandi","Wandi",-32.19846043,115.8625129,445,329000
"10 Little Rush Close, South Lake","South Lake",-32.10835,115.83004,716,403000
"10 LIVONIA Street, Brabham","Brabham",-31.81637377,115.9680273,457,465000
"10 Lodge Court, Cockburn Central","Cockburn Central",-32.127958,115.84626899999999,584,475000
"10 Logwood Avenue, Port Kennedy","Port Kennedy",-32.36087376,115.7486447,606,437000
"10 Looranah Street, Mount Nasura","Mount Nasura",-32.14214537,116.02452720000001,701,400000
"10 Lowell Street, Secret Harbour","Secret Harbour",-32.41235,115.76743,578,500000
"10 Lucca Court, Coogee","Coogee",-32.120459999999994,115.77438000000001,1281,830000
"10 Lucinda Court, Huntingdale","Huntingdale",-32.07849514,115.96053619999999,654,467000
"10 Mabena Place, Ocean Reef","Ocean Reef",-31.74563,115.7266,785,977500
"10 Macedonia Place, North Perth","North Perth",-31.930220000000002,115.85155,204,645000
"10 Madge Way, Leda","Leda",-32.265392,115.80882700000001,600,375000
"10 Madras Crescent, Port Kennedy","Port Kennedy",-32.37507,115.74841,478,355000
"10 Mallaig Place, Warwick","Warwick",-31.838559999999998,115.79558999999999,705,665000
"10 Mallina Circuit, Carramar","Carramar",-31.709059999999997,115.77891000000001,502,396000
"10 Manhattan Avenue, Iluka","Iluka",-31.7357,115.73355,736,785000
"10 Manston Road, Thornlie","Thornlie",-32.05669,115.95645,807,310000
"10 Manyleaf Link, Banksia Grove","Banksia Grove",-31.69288169,115.8052473,440,340000
"10 Mapleton Street, Stirling","Stirling",-31.89662448,115.8144646,822,937000
"10 Mardella Street, Coolbinia","Coolbinia",-31.916629999999998,115.85602,728,920000
"10 Marengo Close, Aveley","Aveley",-31.77310579,115.979805,720,512000
"10 Marie Court, Atwell","Atwell",-32.12757,115.86631000000001,600,525000
"10 Marlock Place, Woodlands","Woodlands",-31.90463518,115.79114709999999,845,1180000
"10 Maroubra Parade, Secret Harbour","Secret Harbour",-32.4034,115.76781899999999,612,343000
"10 Marra Way, South Lake","South Lake",-32.114844,115.84527299999999,548,535000
"10 Martini Way, Tapping","Tapping",-31.72663343,115.80251650000001,574,480000
"10 Mary Street, Highgate","Highgate",-31.937890000000003,115.86896000000002,409,865000
"10 Mary Street, Watermans Bay","Watermans Bay",-31.84862921,115.75304150000001,440,1700000
"10 Massenger Street, Madeley","Madeley",-31.81155,115.82687,576,645000
"10 McKeon Street, Redcliffe","Redcliffe",-31.94177,115.94134,530,420000
"10 McLeod Street, Lockridge","Lockridge",-31.885440000000003,115.95,443,365000
"10 McNeil Grove, Jarrahdale","Jarrahdale",-32.33793,116.06742,928,405000
"10 Meadow Lane, Parkerville","Parkerville",-31.872040000000002,116.14582,1851,635000
"10 Meath Mews, Mosman Park","Mosman Park",-32.019709999999996,115.76201999999999,431,810000
"10 Melbourne Close, Port Kennedy","Port Kennedy",-32.372840000000004,115.75442,517,291000
"10 Meredith Way, Koondoola","Koondoola",-31.84804,115.86697,690,355000
"10 Merens Terrace, Henley Brook","Henley Brook",-31.801040000000004,115.97735,640,585000
"10 Messenger Street, Kelmscott","Kelmscott",-32.12969957,116.0133788,1139,222500
"10 Midlothian Crescent, Kinross","Kinross",-31.71224,115.73364,519,475000
"10 Midsummer Avenue, Jindalee","Jindalee",-31.63243163,115.6867658,460,600000
"10 Midway Street, Riverton","Riverton",-32.0335,115.90198000000001,344,570000
"10 Millenden Street, East Fremantle","East Fremantle",-32.04054023,115.77544270000001,620,1175000
"10 Miller Place, Booragoon","Booragoon",-32.03877,115.83376000000001,695,930000
"10 Milos Loop, Spearwood","Spearwood",-32.11367,115.78151000000001,658,590000
"10 Mimbalup Close, Hillman","Hillman",-32.28114,115.76163000000001,798,295000
"10 Moira Mews, Stratton","Stratton",-31.86334,116.04162,448,375000
"10 Monaco Avenue, North Lake","North Lake",-32.07803,115.82077,727,630000
"10 Monaro Way, Hocking","Hocking",-31.7733053,115.8213022,549,510000
"10 Monota Avenue, Shelley","Shelley",-32.02886344,115.88602920000001,389,720000
"10 Monroe Turn, Success","Success",-32.146770000000004,115.85817,612,515000
"10 Moorhouse Street, Willagee","Willagee",-32.04776,115.81322,756,533000
"10 Moyle Place, Hillarys","Hillarys",-31.81414524,115.7566602,659,1330000
"10 Myrtle Street, Walliston","Walliston",-31.998759999999997,116.06821000000001,1021,408000
"10 Napier Place, Brookdale","Brookdale",-32.16174,115.99686000000001,947,375000
"10 Naree Road, Wilson","Wilson",-32.01807,115.92537,860,690000
"10 Narrien Loop, Hocking","Hocking",-31.77342,115.82255,630,532000
"10 Narrier Close, South Guildford","South Guildford",-31.91661,115.98386,546,510000
"10 Nathaniel Way, Orelia","Orelia",-32.23274,115.8182,731,225000
"10 Navigator Drive, Singleton","Singleton",-32.44228,115.75698999999999,580,380000
"10 Newcomen Road, Stirling","Stirling",-31.89147,115.81128000000001,510,760000
"10 Newell Place, Cooloongup","Cooloongup",-32.3017,115.75163,685,137500
"10 Noonan Court, Willetton","Willetton",-32.049209999999995,115.90385,742,550000
"10 Norman Street, Bellevue","Bellevue",-31.897779999999997,116.03311000000001,751,280000
"10 Norrie Court, Koondoola","Koondoola",-31.84015,115.85723,692,380000
"10 North Lake Road, Alfred Cove","Alfred Cove",-32.03259693,115.81591100000001,1013,550000
"10 Nunney Road, Orelia","Orelia",-32.22878,115.82368999999998,560,375000
"10 Oakbank Crescent, Butler","Butler",-31.63141174,115.69154409999999,595,550000
"10 Oakdene Drive, Madeley","Madeley",-31.8100283,115.8240551,606,630000
"10 Oakleaf Circle, Mirrabooka","Mirrabooka",-31.85538792,115.8648777,684,430000
"10 Ocean View Road, Edgewater","Edgewater",-31.765320000000003,115.78302,742,561000
"10 Omaroo Terrace, City Beach","City Beach",-31.9289055,115.77312920000001,360,1550000
"10 Onslow Road, Shenton Park","Shenton Park",-31.96066918,115.82027649999999,268,998000
"10 Opal Place, Riverton","Riverton",-32.02971239,115.89879950000001,826,620000
"10 Orient Street, South Fremantle","South Fremantle",-32.07182,115.75413,473,1500000
"10 Osaka Loop, Hocking","Hocking",-31.766028000000002,115.825423,564,517500
"10 Oslo Street, Hocking","Hocking",-31.766703999999997,115.825445,549,537000
"10 Otway Street, Swanbourne","Swanbourne",-31.98152,115.76918,404,1425010
"10 Outlook Close, Helena Valley","Helena Valley",-31.91152174,116.04577579999999,2039,670000
"10 Palermo Court, Merriwa","Merriwa",-31.672109999999996,115.71485,610,301500
"10 Pandora Way, Waikiki","Waikiki",-32.306509999999996,115.75285,702,285000
"10 Pannell Road, Bateman","Bateman",-32.05113,115.84853999999999,769,840000
"10 Paris Gardens, Hocking","Hocking",-31.77514685,115.8259487,555,535000
"10 Park Road, Midvale","Midvale",-31.88725,116.03443999999999,684,410000
"10 Patenier Street, Ashby","Ashby",-31.72875,115.80088,582,515000
"10 Peirse Way, Marmion","Marmion",-31.84536504,115.75571399999998,503,1765000
"10 Pelham Lane, Henley Brook","Henley Brook",-31.796470000000003,115.97318999999999,640,460000
"10 Pendleton Crescent, Butler","Butler",-31.64444402,115.7024781,510,370000
"10 Penelope Place, Innaloo","Innaloo",-31.88461447,115.7977679,341,620000
"10 Peoples Avenue, Gooseberry Hill","Gooseberry Hill",-31.95092,116.05259,1498,1000000
"10 Persian Grove, Karnup","Karnup",-32.446139,115.76545859999999,450,165000
"10 Persian Street, Eglinton","Eglinton",-31.59630215,115.67169240000001,313,360000
"10 Perugino Avenue, Landsdale","Landsdale",-31.81712713,115.86877150000001,590,560000
"10 Peterkin Mews, Stratton","Stratton",-31.872790000000002,116.03947,384,320000
"10 Petworth Drive, The Vines","The Vines",-31.74879072,116.0163771,680,647500
"10 Phoenix Terrace, Hocking","Hocking",-31.7647811,115.82236470000001,560,540000
"10 PIEDMONT Way, Brabham","Brabham",-31.81844632,115.964289,350,408100
"10 Pigeon Court, Langford","Langford",-32.03977051,115.9426476,677,347000
"10 Pigott Street, Armadale","Armadale",-32.161,116.00261,708,270000
"10 Pinnacle Road, Coogee","Coogee",-32.12724487,115.77319469999999,432,625000
"10 Plane Tree Grove, O'Connor","O'Connor",-32.06426128,115.80266950000001,474,580000
"10 Playford Mews, Landsdale","Landsdale",-31.80473,115.8606,835,609000
"10 Podger Way, Brookdale","Brookdale",-32.16910869,116.00720049999998,429,341250
"10 Poinsettia Grove, South Lake","South Lake",-32.099000000000004,115.84511,701,460000
"10 Pompei Crescent, Stirling","Stirling",-31.896151,115.81553899999999,495,795000
"10 Pope Mews, North Lake","North Lake",-32.0825,115.8192,767,600000
"10 Portland Way, Ridgewood","Ridgewood",-31.657214,115.723945,630,485000
"10 Portmarnock Drive, The Vines","The Vines",-31.75045,116.00938000000001,1520,800000
"10 Portofino Turn, Ellenbrook","Ellenbrook",-31.78872,115.96118,411,300000
"10 Prescott Court, Parkwood","Parkwood",-32.04512448,115.90426380000001,533,456000
"10 Press Street, Yanchep","Yanchep",-31.545201399999996,115.65561299999999,450,370000
"10 Primus Place, Warnbro","Warnbro",-32.34540877,115.7682868,531,265000
"10 Priory Road, Maida Vale","Maida Vale",-31.951179999999997,116.02035,844,495000
"10 Protector Grove, Roleystone","Roleystone",-32.14225,116.09638999999999,2000,640000
"10 Prudhoe Mews, Ridgewood","Ridgewood",-31.665540000000004,115.72058999999999,554,395000
"10 Purdom Road, Wembley Downs","Wembley Downs",-31.91417096,115.7721087,846,1450000
"10 Pya Place, Joondalup","Joondalup",-31.727290000000004,115.75773000000001,890,370000
"10 Pyrmont Place, Greenmount","Greenmount",-31.89747283,116.04041140000001,717,435500
"10 Queenscliff Court, Kallaroo","Kallaroo",-31.794209999999996,115.74123,775,1125000
"10 Queenslea Drive, Claremont","Claremont",-31.98538479,115.7788635,1201,1950000
"10 Quincy Loop, Iluka","Iluka",-31.742279999999997,115.72946,650,820000
"10 Quindalup Court, Hillman","Hillman",-32.28553,115.76298,699,350000
"10 Quondong Close, Kenwick","Kenwick",-32.03598,115.98595,629,410000
"10 Rainsby Crescent, Ellenbrook","Ellenbrook",-31.77488713,115.9773618,271,272000
"10 Rason Court, Seville Grove","Seville Grove",-32.131976,115.9933144,500,325000
"10 Redcloud Ridge, Merriwa","Merriwa",-31.656727399999998,115.7121909,520,398000
"10 Regatta Boulevard, Champion Lakes","Champion Lakes",-32.11499018,115.992834,344,485000
"10 Rendition Place, Redcliffe","Redcliffe",-31.94377,115.94738999999998,535,460000
"10 Renoir Lane, Currambine","Currambine",-31.73064,115.74891000000001,622,685000
"10 Renshaw Boulevard, Clarkson","Clarkson",-31.681379999999997,115.71583000000001,679,370000
"10 Rhone Place, Beechboro","Beechboro",-31.86825,115.9272,772,405000
"10 Rigoll Court, Mundijong","Mundijong",-32.2879,115.98675,905,350000
"10 Rimmington Court, South Lake","South Lake",-32.11541,115.83928,533,425000
"10 Ritan Lane, Brabham","Brabham",-31.82163542,115.9655701,225,320000
"10 Riverlinks Drive, Clarkson","Clarkson",-31.68855034,115.72888600000002,472,370000
"10 Rivett Way, Brentwood","Brentwood",-32.04281707,115.8504185,802,950000
"10 Robertson Road, Gooseberry Hill","Gooseberry Hill",-31.95372,116.04016000000001,2182,580000
"10 Robertson Street, Hazelmere","Hazelmere",-31.90036,115.99176999999999,2070,312000
"10 Robinia Rise, Helena Valley","Helena Valley",-31.91183,116.03056000000001,1312,600000
"10 Robins Road, Kalamunda","Kalamunda",-31.98126,116.05083,1672,570000
"10 Romaine Loop, Darch","Darch",-31.81248237,115.8534861,344,540000
"10 Romano Crescent, Iluka","Iluka",-31.73480132,115.72720559999999,666,1550000
"10 Rosalind Court, Rossmoyne","Rossmoyne",-32.04133,115.869,896,1210000
"10 Rosedale Vista, Hocking","Hocking",-31.7747429,115.81851409999999,455,459000
"10 Rosegreen Avenue, Butler","Butler",-31.64098224,115.7093557,773,545000
"10 Rowell Gardens, High Wycombe","High Wycombe",-31.934359999999998,116.00339,551,519000
"10 Rushby Way, Samson","Samson",-32.06709,115.80193,891,790000
"10 Samos Place, Mindarie","Mindarie",-31.69117,115.70883,741,610000
"10 Samphire Street, Ascot","Ascot",-31.935940000000002,115.91438000000001,528,1450000
"10 Sanctuary Drive, Bertram","Bertram",-32.243584000000006,115.84943100000001,525,385000
"10 Sandow Green, Clarkson","Clarkson",-31.67923,115.71391000000001,612,307000
"10 Sandstone Place, Marmion","Marmion",-31.84563,115.76086000000001,702,885000
"10 Sanford Court, Heathridge","Heathridge",-31.756359999999997,115.7467,750,492000
"10 Sanford Court, Lockridge","Lockridge",-31.88707,115.95121999999999,356,395000
"10 Santina Place, Queens Park","Queens Park",-32.00618,115.94005,406,399000
"10 Saxon Link, Aveley","Aveley",-31.7792196,115.9857281,617,510000
"10 Schaffers Place, Thornlie","Thornlie",-32.05695,115.94181,774,315000
"10 Second Avenue, Woodbridge","Woodbridge",-31.89023,115.9918,683,790000
"10 Sedgman Mews, Murdoch","Murdoch",-32.06259,115.82763999999999,701,760000
"10 Serotina Lane, Aubin Grove","Aubin Grove",-32.17537442,115.8589396,437,472500
"10 Sessilis Road, Banksia Grove","Banksia Grove",-31.70112525,115.80080659999999,360,315000
"10 Shadwell Court, Caversham","Caversham",-31.87593,115.95646,514,400000
"10 Shaw Place, Mount Nasura","Mount Nasura",-32.13183,116.03124,887,420000
"10 Sheathbill Court, Safety Bay","Safety Bay",-32.300940000000004,115.72758999999999,608,415000
"10 Sheffield Road, Wattle Grove","Wattle Grove",-32.00556462,115.98679820000001,536,440000
"10 Shelduck Crescent, Bennett Springs","Bennett Springs",-31.85957445,115.944483,602,465000
"10 Shirley Road, Walliston","Walliston",-31.99268,116.06776,914,412500
"10 Sinclair Street, Rivervale","Rivervale",-31.96071,115.92536000000001,780,428000
"10 Sion Close, Waterford","Waterford",-32.01913902,115.8779294,808,1170000
"10 Skyros Mews, Stratton","Stratton",-31.867209999999996,116.04348999999999,711,385000
"10 Spargo Street, Myaree","Myaree",-32.04108,115.81935,759,800000
"10 Spiers Place, Middle Swan","Middle Swan",-31.87293,116.01902,608,375000
"10 Spoonbill Pass, Bennett Springs","Bennett Springs",-31.85822024,115.94618100000001,600,465000
"10 Springview Circle, Bennett Springs","Bennett Springs",-31.85917821,115.94917620000001,652,535000
"10 Squires Avenue, Bertram","Bertram",-32.251683,115.84666100000001,599,410000
"10 St Ives Loop, Kallaroo","Kallaroo",-31.793590000000002,115.73591,868,905000
"10 St Kilda Road, Rivervale","Rivervale",-31.955,115.91216000000001,684,461000
"10 St Pierre Circuit, Currambine","Currambine",-31.73531,115.74972,780,651000
"10 Staff Street, Jarrahdale","Jarrahdale",-32.336009600000004,116.06582730000001,771,320000
"10 Stampel Gardens, Kardinya","Kardinya",-32.07077,115.80639,690,629000
"10 Stead Street, Maddington","Maddington",-32.05813,116.00078,809,240000
"10 Stedman Parkway, Leeming","Leeming",-32.07586,115.85295,750,695000
"10 Stillwater Street, Southern River","Southern River",-32.10557014,115.9555995,542,505000
"10 Stone Court, Bibra Lake","Bibra Lake",-32.08767,115.84598999999999,743,435000
"10 Stormbird Loop, Currambine","Currambine",-31.7335,115.7389,459,510000
"10 Strand Close, Atwell","Atwell",-32.14131,115.87028000000001,641,550000
"10 Sulphur Cove, Stratton","Stratton",-31.86482,116.03511,508,270000
"10 Sunset Place, Sorrento","Sorrento",-31.82592,115.75918,706,760000
"10 Swanson Way, Secret Harbour","Secret Harbour",-32.407140000000005,115.76697,694,420000
"10 Syros Court, Mindarie","Mindarie",-31.686837,115.701746,324,920000
"10 Tamarine Way, Swan View","Swan View",-31.87558,116.05113,702,325000
"10 Tanglewood Way, Currambine","Currambine",-31.73682,115.75146000000001,966,850000
"10 Tanson Street, Attadale","Attadale",-32.02142,115.80378,893,2250000
"10 Tarup Place, Hillman","Hillman",-32.28066,115.76449,698,265000
"10 Tarwhine Place, Golden Bay","Golden Bay",-32.43213,115.75438999999999,2039,514000
"10 Taxal Close, Carine","Carine",-31.8489,115.77385,699,945000
"10 TENELLA Road, Dayton","Dayton",-31.85249079,115.9767996,440,495000
"10 Tenement Loop, Hocking","Hocking",-31.773740000000004,115.81074,749,547000
"10 Terrex Rise, Merriwa","Merriwa",-31.67414,115.71207,610,360000
"10 The Circle, Warwick","Warwick",-31.84075,115.80941000000001,536,580000
"10 The Fairway, Jandakot","Jandakot",-32.110929999999996,115.85423999999999,526,780000
"10 The Lane, Churchlands","Churchlands",-31.92036811,115.7942632,1048,1220000
